미디어타입,제목,장소명,장소타입,장소설명,주소,위도,경도,주소_지역명
show,1박2일 시즌1,옛날초당순두부,restaurant,글로벌특집 2탄을 촬영한 순두부 맛집,강원도 강릉시 경포동 운정길 141,37.786707,128.892774,강원
show,1박2일 시즌1,단천식당,restaurant,1박2일 멤버들이 방문한 순대 맛집,강원도 속초시 아바이마을길 17,38.202626,128.593672,강원
show,1박2일 시즌1,별마로천문대,playground,올빼미 여행 특집을 촬영한 천문대,강원도 영월군 영월읍 천문대길 397,37.198816,128.486792,강원
show,1박2일 시즌1,장금성,restaurant,성탄특집을 촬영한 짬뽕 맛집,강원도 원주시 판부면 치악로 1000,37.274739,128.014985,강원
show,1박2일 시즌1,숲속의빈터 방동막국수,restaurant,1박2일 멤버들이 방문한 막국수 맛집,강원도 인제군 기린면 조침령로 496,37.952463,128.358508,강원
show,1박2일 시즌1,정선레일바이크,playground,전국일주 특집을 촬영한 장소,강원도 정선군 여량면 노추산로 745,37.51688,128.727662,강원
show,1박2일 시즌1,덕산기계곡,playground,정선을 가다 편을 촬영한 계곡,강원도 정선군 정선읍 덕산기길 110,37.373367,128.711835,강원
show,1박2일 시즌1,가리산자연휴양림,playground,배달레이스를 촬영한 휴양림,강원도 홍천군 두촌면 가리산길 426,37.866729,127.982506,강원
show,1박2일 시즌1,신륵사 국민관광지,playground,1박 2일 은지원이 108배 한 여주 신륵사,경기도 여주군 여주읍 신륵사길 73,37.29756,127.66147,경기
show,1박2일 시즌1,헤이리 예술마을,playground,1박2일 윷놀이 미션을 한 파주 헤이리 예술마을,경기도 파주시 탄현면 헤이리마을길 70-21,37.788146,126.698883,경기
show,1박2일 시즌1,구조라 해수욕장,playground,1박2일에서 방문한 거제 8경 구조라해수욕장,경상남도 거제시 일운면 거제대로 2056,34.808882,128.690551,경상
show,1박2일 시즌1,현대찜닭,restaurant,경북 안동 특집 중 방문한 찜닭 맛집,경상북도 안동시 번영1길 47,36.56541,128.727802,경상
show,1박2일 시즌1,박달식당,restaurant,1박2일 멤버들이 방문한 순대국밥집,경상북도 예천군 용궁면 읍부리 397-10,36.607731,128.273585,경상
show,1박2일 시즌1,낙영찜갈비 본점,restaurant,강호동과 양준혁이 방문한 찜갈비 맛집,대구광역시 중구 동덕로36길 9-17,35.8712706,128.6049424,대구
show,1박2일 시즌1,부산사직종합운동장사직야구장,playground,1박2일 은지원과 이승기가 방문한 사직야구장,부산광역시 동래구 사직로 45,35.193917,129.061529,부산
show,1박2일 시즌1,부산 자갈치 시장,playground,얼음 배달을 하며 일손을 도운 자갈치 시장,부산광역시 중구 자갈치해안로 52,35.096659,129.030502,부산
show,1박2일 시즌1,해운대 해수욕장,playground,부산 특집을 촬영한 해수욕장,부산광역시 해운대구 우동,35.158647,129.160365,부산
show,1박2일 시즌1,을왕리해수욕장,playground,1박2일에서 방문한 을왕리 해수욕장,인천광역시 중구 용유서로302번길 16-15,37.447737,126.372515,인천
show,1박2일 시즌1,메타세쿼이아 가로수길,playground,1박2일 오프닝 장소였던 메타세쿼이아 길,전라남도 담양군 담양읍 학동리 633,35.3251724,127.009247,전라
show,1박2일 시즌1,순천만습지,playground,전국일주 특집을 촬영한 자연생태공원,전라남도 순천시 순천만길 513-25 ,34.88597,127.509028,전라
show,1박2일 시즌1,청하식당,restaurant,영암편을 촬영한 낙지 맛집,전라남도 영암군 학산면 독천로 170-1,34.725038,126.567914,전라
show,1박2일 시즌1,마라도해녀촌짜장,restaurant,제주도를 가다 편을 촬영한 짜장면 맛집,제주특별자치도 서귀포시 대정읍 가파리 588,33.119912,126.267075,제주
show,1박2일 시즌1,토끼와거북이,restaurant,가파도여행 2편을 촬영한 한식당,제주특별자치도 제주시 서해안로 498-6,33.518829,126.492183,제주
show,1박2일 시즌1,감초식당,restaurant,5대섬 특집편에서 방문한 순대 맛집,제주특별자치도 제주시 이도1동 동광로1길 32,33.503296,126.52777,제주
show,1박2일 시즌1,협재해수욕장,playground,이승기가 오토바이를 타고 방문한 협재해수욕장,제주특별자치도 제주시 한림읍 한림로 329-10,33.394065,126.239527,제주
show,1박2일 시즌1,공산성,playground,박찬호의 야간 훈련 장소였던 공산성,충청남도 공주시 웅진로 280,36.465013,127.12361,충청
show,1박2일 시즌4,미인폭포,playground,"딘딘, 라비, 연정훈이 추가촬영미션을 하러 간 곳",강원도 삼척시 도계읍 심포리 미인폭포,37.182597,129.049232,강원
show,1박2일 시즌4,곰배령 (점봉산),playground,수제 지팡이를 대여해 주는 곳,강원도 인제군 기린면 진동리,38.029391,128.432586,강원
show,1박2일 시즌4,오개장계곡,playground,"김종민, 유세윤이 입수 벌칙 했던 장소",강원도 인제군 남면 어론리,37.951966,128.062699,강원
show,1박2일 시즌4,재인폭포,playground,1박2일 시즌4 러블리즈 미주가 출연했던 점심 복불복 장소,경기도 연천군 연천읍 부곡리 193 ,38.076823,127.14318,경기
show,1박2일 시즌4,고산정,playground,1박2일 시즌 4 8회차 촬영지,경상북도 안동시 도산면 가송길 177-42 ,36.767715,128.892121,경상
show,1박2일 시즌4,도산서원,playground,1박2일 시즌 4 7회 경북 안동 출현 장소,경상북도 안동시 도산면 도산서원길 154,36.727008,128.843597,경상
show,1박2일 시즌4,이육사문학관,playground,1박2일 시즌 4 7회차 이육사 시인 명소,경상북도 안동시 도산면 백운로 525,36.738987,128.862998,경상
show,1박2일 시즌4,노송정,playground,1박2일 시즌 4 8회차 베이스캠프,경상북도 안동시 도산면 온혜리 604,36.749782,128.828485,경상
show,1박2일 시즌4,월영교,playground,1박2일 시즌 4 7회차 오프닝 촬영지,경상북도 안동시 석주로 203,36.576676,128.760825,경상
show,1박2일 시즌4,대한다원보성녹차밭,cafe,1박 2일 스트레스제로 특집의 촬영지,전라남도 보성군 보성읍 녹차로 763-43,34.714824,127.080926,전라
show,1박2일 시즌4,소안도,playground,1박2일 시즌 4 11회차 보물찾기 레이스,전라남도 완도군 소안면,34.148122,126.652089,전라
show,1박2일 시즌4,미라리 해수욕장,playground,1박2일 시즌 4 12회차 소안도 기상 미션지,전라남도 완도군 소안면 미라리,34.144803,126.669746,전라
show,1박2일 시즌4,물치기미전망대,playground,1박2일 시즌 4 12회차 소안도 촬영지,전라남도 완도군 소안면 소안로 1084 맹선복지회관 근처,34.148834,126.634468,전라
show,1박2일 시즌4,항일운동기념관,playground,1박2일 시즌 4 11회차 소안도 레이스 촬영지,전라남도 완도군 소안면 소안로 263,126.652883,126.652883,전라
show,1박2일 시즌4,명사십리 해수욕장,playground,1박2일 시즌 4 11회차 땅 복불복 달리기,전라남도 완도군 신지면 신리,34.327079,126.80895,전라
show,1박2일 시즌4,완도타워,playground,1박2일 시즌 4 11회차 집라인 미션 장소,전라남도 완도군 완도읍 장보고대로 330,34.310761,126.766606,전라
show,1박2일 시즌4,청해포구촬영장,playground,1박2일 시즌 4 11회차 역사 인물 퀴즈 미션지,전라남도 완도군 완도읍 청해진서로 1161-8,34.3233625,126.66968,전라
show,1박2일 시즌4,황가네해물짬뽕,restaurant,1박2일 시즌 4 11회차 점심 식사 게임,전라남도 완도군 완도읍 해변공원로 39,34.317521,126.750802,전라
show,1박2일 시즌4,고창읍성,playground,1박2일 시즌 4 10회 전북 고창 편 출현 장소,전라북도 고창군 고창읍 모양성로 1,35.430899,126.704806,전라
show,1박2일 시즌4,하늘마을민박,playground,1박2일 시즌 4 10회 고창 편 베이스캠프,전라북도 고창군 부안면 검산리 559-3,35.523237,126.636018,전라
show,1박2일 시즌4,책마을해리(친친북스),playground,1박2일 시즌 4 10회차 벌칙 장소,전라북도 고창군 해리면 월봉성산길 88,35.470063,126.483372,전라
show,1박2일 시즌4,쌍화차거리,playground,1박2일 시즌 4 9회차 쌍쌍 특집 오프닝 장소,전라북도 정읍시 충정로 188-7,35.567051,126.857119,전라
show,1박2일 시즌4,삼봉해수욕장,playground,1박2일 시즌 4 단체사진 찍은곳,충청남도 태안군 안면읍 창기리,36.570028,126.315392,충청
show,1박2일 시즌4,안면도 소나무해변길 (태안해안국립공원),playground,1박2일 시즌 4에서 5회 차에 나온 산책 장소,충청남도 태안군 안면읍(태안해안국립공원 안면도지구),36.571024,126.315932,충청
show,1박2일 시즌4,충주호유람선,restaurant,1박2일 시즌 2 담양편에 구담봉을 관람했던 곳,충청북도 단양군 단성면 월악로 3811-19,36.931629,128.253858,충청
show,1박2일 시즌4,구담봉,playground,1박2일 시즌 4 1회 단양군의 관광 명소,충청북도 단양군 단성면 장회리 산32,36.941732,128.247834,충청
show,2TV생생정보,고토히라우동,restaurant,2TV생생정보 6회 우동,서울특별시 마포구 와우산로29길 14-8,37.5550433,126.9291813,서울
show,2TV생생정보,모자호떡,cafe,2TV생생정보 986회 호떡,"강원도 강릉시 금성로 21, 중앙시장 185호",37.754234,128.898988,강원
show,2TV생생정보,영진항,restaurant,2TV생생정보 1595회 대왕해물철판 맛집,강원도 강릉시 주문진읍 신리천로 11,37.8859158,128.8289368,강원
show,2TV생생정보,고선생 화덕생선구이,restaurant,"2TV생생정보 1553회 화덕생선구이, 통갈치조림 맛집",강원도 강릉시 해안로 286 2층,37.751853,128.8760574,강원
show,2TV생생정보,물꼬기,restaurant,2TV생생정보 1588회 생선구이정식 맛집,강원도 삼척시 새천년도로 53-1 1층,37.4385457,129.1873093,강원
show,2TV생생정보,왕가수라청,restaurant,2TV생생정보 1647회 황태구이정식 맛집,강원도 속초시 신흥2길 40,38.2019841,128.5349434,강원
show,2TV생생정보,아바이오징어빵,cafe,2TV생생정보 1584회 삼색오징어빵 맛집,강원도 속초시 중앙시장로6길 14,38.2049698,128.5895216,강원
show,2TV생생정보,범바우막국수 양양본점,restaurant,2TV생생정보 1598회 꾸지뽕막국수 맛집,강원도 양양군 강현면 동해대로 3277-22,38.1328882,128.6188784,강원
show,2TV생생정보,수라상,restaurant,"2TV생생정보 1589회 통섭전골, 오징어순대 맛집",강원도 양양군 손양면 수산1길 41,38.0791899,128.6721997,강원
show,2TV생생정보,비치얼스,restaurant,2TV생생정보 1628회 피자 맛집,강원도 양양군 현북면 하조대4길 32 3층,38.0223162,128.7229179,강원
show,2TV생생정보,다하누한우프라자,restaurant,2TV생생정보 1663회 한우 맛집,강원도 영월군 주천면 도천길 22,37.2787744,128.2573146,강원
show,2TV생생정보,산촌두부마을,restaurant,2TV생생정보 1575회 두부갈비 맛집,강원도 인제군 북면 원통로 254,38.1251715,128.2113407,강원
show,2TV생생정보,인제막국수,restaurant,"2TV생생정보 1619회 메밀옹심이칼국수, 비빔막국수, 감자전 맛집",강원도 인제군 인제읍 인제로168번길 48-4,38.0639603,128.1719582,강원
show,2TV생생정보,임꺽정가든,restaurant,2TV생생정보 1660회 민물매운탕 맛집,강원도 철원군 동송읍 태봉로 1825-6,38.1865639,127.2874501,강원
show,2TV생생정보,연사랑,restaurant,2TV생생정보 1592회 돌미나리밥상 맛집,강원도 철원군 철원읍 금학로339번길 12-28,38.2178956,127.2085751,강원
show,2TV생생정보,해누리,restaurant,"2TV생생정보 1555회 통문어해물찜, 산더미해물탕 맛집",강원도 춘천시 공지로 345,37.8692607,127.7280439,강원
show,2TV생생정보,명가춘천막국수,restaurant,2TV생생정보 1544회 메밀막국수 맛집,강원도 춘천시 당간지주길 76 1층,37.89222,127.72382,강원
show,2TV생생정보,우성닭갈비 본점,restaurant,2TV생생정보 1260회 철판닭갈비,강원도 춘천시 동면 만천양지길 87,37.887309,127.763261,강원
show,2TV생생정보,참나무숯불닭갈비,restaurant,2TV생생정보 1649회 맥반석닭갈비 맛집,강원도 춘천시 신북읍 신샘밭로 715,37.9305019,127.788979,강원
show,2TV생생정보,카페건널목,cafe,"2TV생생정보 1604회 연탄빵, 연탄라테 맛집",강원도 태백시 감천로 21-1 토리모리건물앞 안쪽,37.1593868,128.9887525,강원
show,2TV생생정보,승소 닭갈비,restaurant,2TV생생정보 1604회 물닭갈비 맛집,강원도 태백시 번영로 347,37.1717831,128.9910498,강원
show,2TV생생정보,황태회관,restaurant,2TV생생정보 1663회 오삼불고기 맛집,강원도 평창군 대관령면 눈마을길 19,37.6698745,128.7098617,강원
show,2TV생생정보,밥먹을시간,restaurant,2TV생생정보 1606회 더덕오삼불고기 맛집,강원도 평창군 대관령면 횡계2길 3-7,37.6726963,128.708263,강원
show,2TV생생정보,느티나무 돌솥곤드레밥,restaurant,"2TV생생정보 1654회 돌솥곤드레밥, 감자옹심이 맛집",강원도 홍천군 영귀미면 수타사로 380,37.6937337,127.9552314,강원
show,2TV생생정보,무궁화화로숯불구이,restaurant,"2TV생생정보 1665회 고추장삼겹살, 막국수 맛집",강원도 홍천군 홍천읍 양지말길 3,37.6589297,127.8298349,강원
show,2TV생생정보,식당별하 버섯요리전문점,restaurant,2TV생생정보 1659회 버섯전골 맛집,강원도 홍천군 화촌면 홍천로 1134,37.7403398,127.9412654,강원
show,2TV생생정보,북한강횟집,restaurant,2TV생생정보 1580회 산천어요리 맛집,강원도 화천군 화천읍 중앙로 12-10,38.1042779,127.7051239,강원
show,2TV생생정보,화천손만두,restaurant,2TV생생정보 1580회 고추장떡 맛집,강원도 화천군 화천읍 중앙로4길 12,38.104047,127.7053974,강원
show,2TV생생정보,반길이국밥,restaurant,"2TV생생정보 1618회 한우국밥, 잣수육무침 맛집",경기도 가평군 상면 조종로 1808,37.8049606,127.3570731,경기
show,2TV생생정보,축령가든,restaurant,2TV생생정보 1665회 한정식 맛집,경기도 가평군 상면 축령로45번길 114-3,37.7659297,127.3620947,경기
show,2TV생생정보,산골농원,restaurant,2TV생생정보 1561회 솥뚜껑닭볶음탕 맛집,경기도 가평군 설악면 어비산길99번길 75-7,37.596235,127.50975,경기
show,2TV생생정보,도원가든,restaurant,2TV생생정보 1602회 솥뚜껑닭볶음탕 맛집,경기도 가평군 청평면 수리재길 141,37.7762457,127.4376733,경기
show,2TV생생정보,라떼떼라,cafe,2TV생생정보 1596회 수박실타래빙수 맛집,"경기도 고양시 덕양구 고양대로 1445-37 1,2층",37.6547726,126.8453248,경기
show,2TV생생정보,가나안국수,restaurant,"2TV생생정보 1568회 초계국수, 비빔국수 맛집",경기도 고양시 덕양구 행주로15번길 16,37.6008133,126.8278577,경기
show,2TV생생정보,한소반쭈꾸미 일산점,restaurant,2TV생생정보 1582회 쭈꾸미세트 맛집,경기도 고양시 일산동구 애니골길 55,37.6726711,126.7918003,경기
show,2TV생생정보,신라면옥 본점,restaurant,"2TV생생정보 1593회 소고기수육전골, 명태회냉면 맛집",경기도 고양시 일산동구 탄중로431번길 15,37.6864681,126.778502,경기
show,2TV생생정보,장세 무한리필 일산본점,restaurant,2TV생생정보 1600회 고기무한리필 맛집,경기도 고양시 일산서구 대산로226번길 8-6,37.6789746,126.7540511,경기
show,2TV생생정보,골목집소머리국밥,restaurant,2TV생생정보 1621회 소머리국밥 맛집,경기도 광주시 곤지암읍 경충대로 621,37.3502987,127.3399225,경기
show,2TV생생정보,애마오리,restaurant,2TV생생정보 713회 오리백숙,경기도 광주시 남한산성면 엄미길 186,37.475496,127.220754,경기
show,2TV생생정보,해신생생해물탕,restaurant,2TV생생정보 1633회 산더미해물탕 맛집,경기도 광주시 초월읍 경충대로 1014,37.3698617,127.3039929,경기
show,2TV생생정보,신흥정육식당,restaurant,"2TV생생정보 1648회 갈비탕, 소고기국밥 맛집",경기도 김포시 김포한강9로12번길 8-28 1층,37.6342473,126.7370613,경기
show,2TV생생정보,동동국수집,restaurant,2TV생생정보 98회 육개장칼국수/육전,경기도 남양주시 와부읍 경강로 908,37.55712,127.236591,경기
show,2TV생생정보,역전집,restaurant,"2TV생생정보 1558회 감자전, 비빔국수 맛집",경기도 남양주시 조안면 다산로526번길 25-74,37.5232073,127.2965308,경기
show,2TV생생정보,운길산마루,restaurant,"2TV생생정보 1558회 숯불장어, 돼지갈비 맛집",경기도 남양주시 조안면 북한강로383번길 36,37.5574745,127.3088741,경기
show,2TV생생정보,가호전골,restaurant,2TV생생정보 1267회 통문어소뼈전골,경기도 동두천시 중앙로 134-12 예일복합타워2층,37.8930648,127.0532161,경기
show,2TV생생정보,장원물갈비,restaurant,2TV생생정보 1573회 산더미왕갈비전골 맛집,경기도 부천시 부천로53번길 9,37.4889215,126.7831657,경기
show,2TV생생정보,제주사랑 본점,restaurant,2TV생생정보 1628회 생갈치조림 맛집,경기도 부천시 신흥로 140,37.4963708,126.7785022,경기
show,2TV생생정보,시골집,restaurant,2TV생생정보 1590회 추어매운탕 맛집,경기도 부천시 연동로146번길 4,37.4745192,126.8244471,경기
show,2TV생생정보,판교 장어사랑,restaurant,"2TV생생정보 1559회 한방장어구이, 전복장어탕 맛집",경기도 성남시 수정구 설개로 8,37.4215243,127.1056019,경기
show,2TV생생정보,유정집,restaurant,2TV생생정보 1580회 누룽지닭백숙 맛집,경기도 성남시 수정구 수정로 460-2,37.4616742,127.1559866,경기
show,2TV생생정보,짜마,restaurant,"2TV생생정보 1547회 항아리짬뽕, 돌판짜장 맛집",경기도 수원시 팔달구 권광로175번길 98 1층,37.2647358,127.0272038,경기
show,2TV생생정보,남문통닭 본점,restaurant,"2TV생생정보 1550회 갈비맛통닭, 고추장맛통닭 맛집",경기도 수원시 팔달구 정조로800번길 16,37.2795537,127.0174974,경기
show,2TV생생정보,카페애테,cafe,2TV생생정보 1596회 산더미빙수 맛집,경기도 수원시 팔달구 행궁로 65 1층,37.2768373,127.0158634,경기
show,2TV생생정보,해물천지,restaurant,"2TV생생정보 1567회 통문어해물전골, 육해공보양탕 맛집",경기도 수원시 팔달구 행궁로22번길 17,37.2801708,127.0138556,경기
show,2TV생생정보,참소예,restaurant,2TV생생정보 1639회 주꾸미볶음한상차림 맛집,경기도 시흥시 동서로 706-27 참소예,37.3839333,126.8282288,경기
show,2TV생생정보,이가네생칼국수,restaurant,2TV생생정보 1660회 닭한마리칼국수 맛집,경기도 시흥시 신천3길 9,37.4394471,126.7848883,경기
show,2TV생생정보,마라명장,restaurant,2TV생생정보 1657회 화끈마라짬뽕 맛집,경기도 안산시 단원구 고잔2길 65 205호,37.3176428,126.8385728,경기
show,2TV생생정보,별난곱창,restaurant,2TV생생정보 1570회 한우모둠구이한판 맛집,경기도 안산시 단원구 고잔2길 73 삼일빌딩,37.3175963,126.8395324,경기
show,2TV생생정보,먹골농장,restaurant,2TV생생정보 1604회 오리구이 맛집,경기도 양주시 광적면 현석로 597-125,37.8377682,126.9633783,경기
show,2TV생생정보,두물머리연핫도그,restaurant,2TV생생정보 1586회 연잎핫도그 맛집,경기도 양평군 양서면 두물머리길 103-8,37.5347263,127.3167477,경기
show,2TV생생정보,양수리한옥집,restaurant,2TV생생정보 1638회 아구찜 맛집,경기도 양평군 양서면 양수로138번길 41,37.5453159,127.32106,경기
show,2TV생생정보,장터집,restaurant,2TV생생정보 1581회 양평해장국 맛집,경기도 양평군 양평읍 양평장터길 5,37.4899998,127.4932792,경기
show,2TV생생정보,솔잎칼국수,restaurant,"2TV생생정보 1586회 솔잎칼국수, 솔잎콩국수 맛집",경기도 양평군 용문면 용문로 385,37.4862676,127.5956669,경기
show,2TV생생정보,청산녹수,restaurant,2TV생생정보 1599회 초계탕 맛집,경기도 연천군 청산면 초성리 산19-2,37.9874336,127.094361,경기
show,2TV생생정보,메밀래,restaurant,2TV생생정보 1603회 홍두깨막국수 맛집,경기도 용인시 기흥구 용구대로2145번길 23,37.2815666,127.1044382,경기
show,2TV생생정보,즐삼프리미엄생고기,restaurant,2TV생생정보 1552회 고기무한리필 맛집,경기도 용인시 처인구 명지로16번길 9-11 YB테라스2층 205호,37.2338305,127.18807,경기
show,2TV생생정보,우리수산,restaurant,2TV생생정보 1572회 양푼물회 맛집,경기도 용인시 처인구 중부대로 1131 맑은세상빌딩 1층,37.2404914,127.1720606,경기
show,2TV생생정보,명가 코다리찜,restaurant,2TV생생정보 1667회 문어시래기코다리찜 맛집,경기도 용인시 처인구 포곡읍 포곡로272번길 19-6,37.2773299,127.2324971,경기
show,2TV생생정보,만화간장게장,restaurant,"2TV생생정보 1665회 간장게장, 꽃게탕 맛집",경기도 의정부시 고산로 309,37.7337207,127.1050741,경기
show,2TV생생정보,조경제만두쟁이,restaurant,"2TV생생정보 1607회 냉칼국수, 삼색수제만두전골 맛집","경기도 의정부시 부용로 105 플래티넘프라자2차 201호, 202호",37.751261,127.0693546,경기
show,2TV생생정보,성원통닭,restaurant,2TV생생정보 1639회 통닭 맛집,경기도 의정부시 태평로 89 성원통닭,37.7405061,127.0514046,경기
show,2TV생생정보,강민주의들밥 본점,restaurant,"2TV생생정보 1575회 보리굴비한상, 간장게장 맛집",경기도 이천시 마장면 지산로22번길 17,37.2214185,127.3679451,경기
show,2TV생생정보,오동추야,restaurant,2TV생생정보 1562회 숯불돼지갈비 맛집,경기도 이천시 증신로 160,37.2902331,127.4521568,경기
show,2TV생생정보,약선마을,restaurant,2TV생생정보 1587회 바닷가재해신탕 맛집,경기도 파주시 광탄면 부흥로 133 1층,37.8056725,126.8838473,경기
show,2TV생생정보,파주코다리,restaurant,2TV생생정보 1596회 코다리조림 맛집,경기도 파주시 교하로 412-5,37.7068203,126.7322726,경기
show,2TV생생정보,한끼두끼,restaurant,2TV생생정보 1644회 낙곱새전골 맛집,경기도 파주시 지목로 154,37.7275598,126.6980124,경기
show,2TV생생정보,용궁칼국수,restaurant,2TV생생정보 1441회 해물장단콩칼국수,경기도 파주시 탄현면 새오리로 59-52,37.7901865,126.6838333,경기
show,2TV생생정보,숑스바베큐 파주본점,restaurant,2TV생생정보 1662회 등갈비바비큐 맛집,경기도 파주시 탄현면 새오리로 98,37.7929507,126.686172,경기
show,2TV생생정보,쉼골전통된장,restaurant,"2TV생생정보 1551회 연두부카프레제, 차돌된장전골, 간장수육 맛집",경기도 파주시 탄현면 헤이리마을길 59-134 1층,37.7917134,126.695229,경기
show,2TV생생정보,연잎풍천장어,restaurant,2TV생생정보 1566회 연잎삼색장어구이 맛집,경기도 평택시 이화로 160-25,37.008555,127.1376119,경기
show,2TV생생정보,평화김밥,restaurant,2TV생생정보 1621회 꼬마김밥 맛집,경기도 평택시 통복로 60-1,36.9972007,127.0837228,경기
show,2TV생생정보,콩마루,restaurant,"2TV생생정보 1637회 두부보쌈, 두부전골 맛집",경기도 포천시 군내면 포천로 1501,37.8933358,127.2090727,경기
show,2TV생생정보,약산궁능이버섯백숙,restaurant,2TV생생정보 1613회 산양삼능이백숙 맛집,경기도 포천시 내촌면 금강로 3143-7,37.8410742,127.2740466,경기
show,2TV생생정보,한가정통어죽,restaurant,2TV생생정보 1653회 어죽 맛집,경기도 포천시 소흘읍 광릉수목원로 655,37.7711533,127.1639057,경기
show,2TV생생정보,갈비1987,restaurant,2TV생생정보 1645회 이동갈비한상 맛집,경기도 포천시 이동면 화동로 2065-1,38.0321415,127.3662643,경기
show,2TV생생정보,인천생갈비 본관,restaurant,"2TV생생정보 1631회 돼지생갈비, 소갈비탕 맛집",경기도 화성시 동탄역로 124 윤정프라자 201호,37.199327,127.0970177,경기
show,2TV생생정보,청해랑,restaurant,2TV생생정보 1565회 대게활어회한상 맛집,경기도 화성시 동탄지성로 12 3층,37.2049951,127.0732442,경기
show,2TV생생정보,경성,restaurant,2TV생생정보 1643회 훈연생선구이정식 맛집,경기도 화성시 세자로 480,37.1865121,126.9811404,경기
show,2TV생생정보,6시내고향회센타,restaurant,2TV생생정보 1635회 전어 맛집,경기도 화성시 송산면 사강로 178-1,37.2127114,126.7357903,경기
show,2TV생생정보,신영통명품생태,restaurant,2TV생생정보 1670회 생태찌개 맛집,경기도 화성시 영통로 73-3,37.2356487,127.0605793,경기
show,2TV생생정보,수양식당,restaurant,2TV생생정보 1546회 회정식 맛집,경상남도 고성군 동해면 동해로 1590,35.0452988,128.444726,경상
show,2TV생생정보,섬낚시횟집,restaurant,2TV생생정보 1587회 갯장어 맛집,경상남도 고성군 삼산면 두포1길 198-15,34.9043681,128.2733659,경상
show,2TV생생정보,군령포하모자연산횟집,restaurant,2TV생생정보 1587회 갯장어 맛집,경상남도 고성군 삼산면 두포5길 426,34.9172326,128.2973173,경상
show,2TV생생정보,상동현자추어탕,restaurant,2TV생생정보 1582회 맑은추어탕 맛집,경상남도 밀양시 상동면 상동로 176,35.5277694,128.7816696,경상
show,2TV생생정보,일신식당,restaurant,2TV생생정보 1583회 쏘가리매운탕 맛집,경상남도 산청군 생초면 산수로 1022-1,35.4923283,127.836055,경상
show,2TV생생정보,채움식육식당,restaurant,"2TV생생정보 1606회 한우사골곰탕, 소불고기정식, 김치찌개정식, 된장찌개정식 맛집",경상남도 양산시 물금읍 서들로 148,35.3086733,129.0094133,경상
show,2TV생생정보,삼오식당 창녕본점,restaurant,2TV생생정보 1572회 수구레국밥 맛집,경상남도 창녕군 창녕읍 창녕시장길 90,35.5410473,128.4972659,경상
show,2TV생생정보,강림통술 1호점,restaurant,2TV생생정보 1552회 통술요리한상차림 맛집,경상남도 창원시 마산합포구 오동북15길 30 1층,35.2085908,128.577943,경상
show,2TV생생정보,멍게가,restaurant,2TV생생정보 519회 멍게,경상남도 통영시 동충4길 25 멍게가,34.8413645,128.4227695,경상
show,2TV생생정보,할매 우짜,restaurant,"2TV생생정보 1548회 우짜, 빼떼기죽 맛집",경상남도 통영시 새터길 42-7,34.8412795,128.4194451,경상
show,2TV생생정보,동백식당,restaurant,"2TV생생정보 1630회 참게탕, 메기탕, 재첩회 맛집",경상남도 하동군 화개면 화개로 13,35.1898034,127.6230313,경상
show,2TV생생정보,무진정돌짜장,restaurant,"2TV생생정보 1613회 돌짜장, 통문어짬뽕 맛집",경상남도 함안군 함안면 괴산4길 6,35.2549975,128.4225296,경상
show,2TV생생정보,보리채,restaurant,"2TV생생정보 1545회 돼지국밥, 순대 맛집",경상남도 합천군 가회면 황매산로 539,35.4638583,128.00082,경상
show,2TV생생정보,감로당,restaurant,2TV생생정보 1531회 쫄면,경상북도 경주시 건천읍 내서로 1128,35.8484629,129.1039496,경상
show,2TV생생정보,경주밀면 본점,restaurant,"2TV생생정보 1589회 밀면, 숯불고기 맛집",경상북도 경주시 시래둑길 7 한림원,35.7733763,129.3031067,경상
show,2TV생생정보,가잠,restaurant,"2TV생생정보 1557회 물회, 쪽갈비 맛집",경상북도 구미시 신시로16길 85,36.1167912,128.3482337,경상
show,2TV생생정보,현구3대원조불고기,restaurant,2TV생생정보 1658회 흑돼지고추장구이 맛집,경상북도 김천시 지례면 향교길 13,35.9884021,128.0281487,경상
show,2TV생생정보,솔봉숯불구이,restaurant,2TV생생정보 1650회 돼지숯불구이 맛집,경상북도 봉화군 봉성면 미륵골길 2,36.8828173,128.8161689,경상
show,2TV생생정보,맛우짜,restaurant,2TV생생정보 850회 찜닭자장면/냉우동,경상북도 안동시 대안로 174,36.563993,128.73169,경상
show,2TV생생정보,금성수산,restaurant,2TV생생정보 1601회 도화새우&가리비 맛집,경상북도 울진군 죽변면 죽변항길 119,37.0582528,129.4246594,경상
show,2TV생생정보,운하회대게식당,restaurant,2TV생생정보 1598회 물회 맛집,경상북도 포항시 북구 죽도시장길 39,36.0356467,129.369752,경상
show,2TV생생정보,마라도회식당,restaurant,2TV생생정보 1611회 물회 맛집,경상북도 포항시 북구 해안로 217-1,36.0647697,129.3871876,경상
show,2TV생생정보,원이네웰빙호떡튀김,restaurant,2TV생생정보 1670회 상추튀김 맛집,광주광역시 북구 서방로 73,35.1719501,126.9209778,광주
show,2TV생생정보,나정상회,restaurant,2TV생생정보 1078회 갈비조립,광주광역시 서구 상무자유로 24,35.1512097,126.836712,광주
show,2TV생생정보,육전 한옥,restaurant,2TV생생정보 1670회 육전 맛집,광주광역시 서구 운천로 223 한옥1층,35.1522524,126.8544422,광주
show,2TV생생정보,원조이방아지매,restaurant,2TV생생정보 1645회 수구레국밥 맛집,대구광역시 달성군 현풍읍 현풍로6길 5 상설시장동(상설시장동 109 동),35.6947517,128.4422432,대구
show,2TV생생정보,반야월연꽃마을협동조합,cafe,"2TV생생정보 1594회 연근차, 연잎라떼, 연근쿠키 맛집",대구광역시 동구 금강로 153,35.8626471,128.737212,대구
show,2TV생생정보,반고개의성무침회본점,restaurant,"2TV생생정보 1594회 무침회, 납작만두, 동죽조개탕 맛집",대구광역시 서구 달구벌대로375길 17,35.8626047,128.5700446,대구
show,2TV생생정보,울진참가자미,restaurant,2TV생생정보 1564회 자연산물회 맛집,대구광역시 수성구 들안로 297,35.856524,128.6168509,대구
show,2TV생생정보,낙영찜갈비 본점,restaurant,2TV생생정보 120회 찜갈비,대구광역시 중구 동덕로36길 9-17,35.8712706,128.6049424,대구
show,2TV생생정보,동성로카페 스위트앤드,restaurant,"2TV생생정보 1603회 짜장면빙수, 짬뽕빙수 맛집",대구광역시 중구 동성로2길 12-36 2층,35.8660565,128.5970044,대구
show,2TV생생정보,짬뽕차이나,restaurant,2TV생생정보 1618회 중화요리뷔페 맛집,대전광역시 동구 대전로 463,36.3069083,127.4510313,대전
show,2TV생생정보,큰뫼골,restaurant,2TV생생정보 1587회 민물새우탕 맛집,대전광역시 동구 대청호수로 723-5,36.3866823,127.480494,대전
show,2TV생생정보,바보곰탕,restaurant,2TV생생정보 1641회 한우방치찜 맛집,대전광역시 서구 둔산대로117번길 95 리더스타운,36.3692968,127.3817551,대전
show,2TV생생정보,월광박속낙지탕,restaurant,2TV생생정보 1663회 박속낙지탕 맛집,대전광역시 서구 한밭대로707번길 27 2층,36.3591291,127.3772627,대전
show,2TV생생정보,산골묵집,restaurant,"2TV생생정보 1600회 채묵, 도토리전, 보리밥 맛집",대전광역시 유성구 관용로63번길 47,36.416073,127.3840753,대전
show,2TV생생정보,숯골원냉면 본점,restaurant,2TV생생정보 1616회 냉면 맛집,대전광역시 유성구 신성로84번길 18,36.3901104,127.3502532,대전
show,2TV생생정보,맛나분식,restaurant,2TV생생정보 1123회 떡볶이/김밥/부추전/순대,부산광역시 금정구 서동시장길 42-4,35.155658,129.058159,부산
show,2TV생생정보,김가네 삼색칼국수,restaurant,2TV생생정보 1574회 삼색해물칼국수 맛집,부산광역시 동래구 온천장로119번길 10,35.2216005,129.0842947,부산
show,2TV생생정보,황금족발,restaurant,2TV생생정보 1555회 족발 맛집,부산광역시 영도구 남항로41번길 27 1층,35.0898017,129.0415196,부산
show,2TV생생정보,인터랙트 with 글루텐프리,restaurant,"2TV생생정보 1628회 호두카카오초콜릿쿠키, 블루베리치즈크럼블 맛집",서울특별시 강남구 강남대로118길 16 1층,37.5065248,127.0248564,서울
show,2TV생생정보,풍년집,restaurant,2TV생생정보 1640회 소갈비살 맛집,서울특별시 강남구 논현로67길 63,37.492678,127.0347956,서울
show,2TV생생정보,바이트샌드위치&샐러드,cafe,2TV생생정보 1580회 샌드위치 맛집,서울특별시 강남구 봉은사로 474 1층102호,37.5122834,127.0517546,서울
show,2TV생생정보,가나돈까스의집,restaurant,2TV생생정보 765회 돈가스,서울특별시 강남구 언주로 608,37.5098824,127.037748,서울
show,2TV생생정보,한교방 서울면옥,restaurant,"2TV생생정보 1634회 소갈비찜, 육전냉면 맛집",서울특별시 강남구 학동로45길 8 유화빌딩 2층,37.5167961,127.0380778,서울
show,2TV생생정보,버섯잔치집 본점,restaurant,2TV생생정보 1624회 반반버섯전골 맛집,서울특별시 강동구 성내로 52 성원빌딩,37.5282888,127.1256723,서울
show,2TV생생정보,옛곰탕집,restaurant,2TV생생정보 1390회 곰탕,서울특별시 강북구 도봉로71가길 4,37.631508,127.022731,서울
show,2TV생생정보,예성닭도리탕,restaurant,2TV생생정보 1646회 묵은지닭도리탕 맛집,서울특별시 강북구 한천로139길 35 1층,37.6386984,127.0253296,서울
show,2TV생생정보,풍천장어구이 파김치장어전골 화곡점,restaurant,2TV생생정보 1664회 파장어전골 맛집,서울특별시 강서구 곰달래로16길 37 1층,37.5283748,126.8403918,서울
show,2TV생생정보,탑퓨전포차,restaurant,2TV생생정보 1666회 안주무한리필 맛집,서울특별시 관악구 신림로59길 15-16 1층,37.4825678,126.9294284,서울
show,2TV생생정보,소사면옥 군자역본점,restaurant,"2TV생생정보 1608회 코다리냉면, 물냉면 맛집",서울특별시 광진구 능동로 270 1층,37.5540374,127.0780827,서울
show,2TV생생정보,할매복집,restaurant,2TV생생정보 1668회 복불고기 맛집,서울특별시 광진구 아차산로76가길 13 1층,37.5469772,127.1072184,서울
show,2TV생생정보,손가네생오리부페,restaurant,2TV생생정보 1564회 오리고기무제한 맛집,서울특별시 구로구 개봉로19길 29,37.4933738,126.8557833,서울
show,2TV생생정보,무한자금성,restaurant,"2TV생생정보 1636회 탕수육, 깐풍기, 팔보채 맛집",서울특별시 구로구 디지털로 273,37.4839163,126.8940805,서울
show,2TV생생정보,가산물갈비&백년불고기,restaurant,2TV생생정보 1170회 산더미물갈비,서울특별시 금천구 가산디지털1로 128 STX V TOWER 110호,37.4771592,126.8837142,서울
show,2TV생생정보,도원,restaurant,"2TV생생정보 1672회 깐풍기, 고추잡채, 양장피 맛집",서울특별시 금천구 범안로 1130 1층,37.465603,126.8876967,서울
show,2TV생생정보,신가네칼국수,restaurant,2TV생생정보 1584회 서리태콩국수 맛집,서울특별시 노원구 공릉로59나길 78-14,37.6356584,127.0702137,서울
show,2TV생생정보,엄마손술빵,cafe,2TV생생정보 1573회 술빵 맛집,서울특별시 노원구 동일로180길 45,37.6227467,127.0767692,서울
show,2TV생생정보,용순가재골수제비,restaurant,2TV생생정보 1610회 얼큰수제비,서울특별시 노원구 동일로242길 100,37.67443,127.060634,서울
show,2TV생생정보,도봉산두부,restaurant,2TV생생정보 402회 포두부삼합/두부,서울특별시 도봉구 도봉산길 73,37.686204,127.037355,서울
show,2TV생생정보,조영환의대양한방숯불갈비,restaurant,"2TV생생정보 1592회 한방숯불돼지갈비, 냉면 맛집",서울특별시 동대문구 고산자로 399 2층,37.5752378,127.0377488,서울
show,2TV생생정보,탕미옥,restaurant,"2TV생생정보 1619회 전복문어갈비찜, 보양우족찜 맛집",서울특별시 동대문구 왕산로19나길 3 태종빌딩 1층,37.5786393,127.0331255,서울
show,2TV생생정보,BK볏짚 우대갈비 장안동본점,restaurant,"2TV생생정보 1611회 우대갈비, 된장찌개 맛집",서울특별시 동대문구 장한로26가길 29 1층,37.5704116,127.0715869,서울
show,2TV생생정보,육지,restaurant,2TV생생정보 1626회 숙성돈대갈비접기 맛집,서울특별시 마포구 독막로3길 34,37.5496608,126.9174559,서울
show,2TV생생정보,동일루,restaurant,2TV생생정보 1074회 찹쌀탕수육,서울특별시 마포구 포은로 75,37.553813,126.905607,서울
show,2TV생생정보,독박골맛있는집,restaurant,2TV생생정보 1652회 간장코다리조림 맛집,서울특별시 서대문구 서소문로 61-7,37.5619858,126.9678239,서울
show,2TV생생정보,달인꽈배기,cafe,2TV생생정보 1666회 꽈배기 맛집,서울특별시 서대문구 통일로 205-3,37.5711998,126.960768,서울
show,2TV생생정보,바나나트리 성수점,cafe,2TV생생정보 1596회 화분빙수 맛집,서울특별시 성동구 서울숲길 47,37.548099,127.0428089,서울
show,2TV생생정보,밀도 성수점,cafe,2TV생생정보 560회 식빵,서울특별시 성동구 왕십리로 96 1층,37.546254,127.044859,서울
show,2TV생생정보,자연향,restaurant,"2TV생생정보 1585회 항아리오리바비큐, 항아리통삼겹바비큐 맛집",서울특별시 성북구 보국문로28길 2 B동,37.6161513,127.005489,서울
show,2TV생생정보,동선식당,restaurant,2TV생생정보 1597회 금반지갈비찜 맛집,서울특별시 성북구 보문로30라길 9 1층,37.5897991,127.0190968,서울
show,2TV생생정보,일루 퓨전한식뷔페,restaurant,2TV생생정보 1624회 치맥무한리필 맛집,서울특별시 송파구 문정동 195-1,37.4880337,127.1205138,서울
show,2TV생생정보,천미미,restaurant,"2TV생생정보 1625회 통낙지쟁반짜장, 통오징어짬뽕 맛집",서울특별시 송파구 송파대로28길 20 1층,37.49411,127.1202119,서울
show,2TV생생정보,전복하다 목동직영점,restaurant,2TV생생정보 1551회 전복 맛집,서울특별시 양천구 목동로9길 10 1층,37.5229194,126.8634118,서울
show,2TV생생정보,계옥정,restaurant,2TV생생정보 1591회 닭특수부위구이 맛집,서울특별시 영등포구 경인로79길 17-2 1층,37.5132888,126.8933588,서울
show,2TV생생정보,선주후면 어만두,restaurant,"2TV생생정보 1669회 어복쟁반, 만두전골 맛집",서울특별시 영등포구 국제금융로2길 37 S-Trenue빌딩 지하1층,37.522863,126.92409,서울
show,2TV생생정보,느루집,restaurant,"2TV생생정보 1661회 치즈닭갈비, 삼겹닭갈비 맛집","서울특별시 영등포구 당산로 34 112호, 113호",37.517425,126.8964798,서울
show,2TV생생정보,더베이커스테이블,cafe,2TV생생정보 603회 독일요리,서울특별시 용산구 녹사평대로 244-1,37.5394055,126.9874586,서울
show,2TV생생정보,열봉부엌,restaurant,2TV생생정보 273회 차돌불고기/바다무침,서울특별시 용산구 백범로87길 46,37.539253,126.969231,서울
show,2TV생생정보,평양초계탕막국수,restaurant,2TV생생정보 1564회 초계탕 맛집,서울특별시 은평구 대서문길 9,37.6576474,126.9470632,서울
show,2TV생생정보,빅토리아 응암본점,restaurant,2TV생생정보 1323회 등갈비김치찜/등갈비튀김,서울특별시 은평구 응암로21길 11,37.593943,126.916653,서울
show,2TV생생정보,안성또순이,restaurant,2TV생생정보 691회 생태찌개,서울특별시 종로구 경희궁길 18,37.5716205,126.9716406,서울
show,2TV생생정보,책읽는고양이,cafe,2TV생생정보 1672회 아메리카노 맛집,서울특별시 종로구 낙산성곽서1길 18-2,37.5777563,127.0081475,서울
show,2TV생생정보,평창칼국수,restaurant,2TV생생정보 1597회 산더미비빔밥 맛집,서울특별시 종로구 동호로 405-4 동문A 3호점,37.5705894,127.0016192,서울
show,2TV생생정보,풍년쌀농산,restaurant,2TV생생정보 573회 떡볶이/떡꼬치 맛집,서울특별시 종로구 북촌로5가길 32,37.580888,126.981668,서울
show,2TV생생정보,통돼지집,restaurant,"2TV생생정보 1672회 통돼지삼겹살, 통돼지갈매기살 맛집",서울특별시 종로구 수표로28길 44,37.5731895,126.9906771,서울
show,2TV생생정보,원조 순희네 빈대떡,restaurant,2TV생생정보 852회 녹두전,서울특별시 종로구 종로32길 5,37.570597,127.000711,서울
show,2TV생생정보,무교동낙지,restaurant,2TV생생정보 1550회 낙지볶음 맛집,서울특별시 종로구 종로3길 30,37.5716008,126.9794439,서울
show,2TV생생정보,삼모녀마약김밥,restaurant,2TV생생정보 1661회 꼬마김밥 맛집,서울특별시 종로구 창경궁로 88 광장시장 동부 B 22호,37.5700398,126.9996036,서울
show,2TV생생정보,남해식당,restaurant,2TV생생정보 1667회 칼국수 맛집,서울특별시 중구 남대문시장4길 42-1,37.5582768,126.9769987,서울
show,2TV생생정보,용금옥,restaurant,2TV생생정보 711회 추어탕,서울특별시 중구 다동길 24-2,37.567578,126.980575,서울
show,2TV생생정보,머거보까매운갈비찜,restaurant,2TV생생정보 1549회 매운돼지갈비찜 맛집,서울특별시 중구 다산로10길 5-4,37.5536645,127.0106376,서울
show,2TV생생정보,설렁탕.족탕.꼬리곰탕의 문화옥,restaurant,"2TV생생정보 1586회 설렁탕, 수육 맛집",서울특별시 중구 창경궁로 62-5,37.568082,126.9984559,서울
show,2TV생생정보,북경반점,restaurant,"2TV생생정보 1588회 짜장면, 짬뽕, 탕수육 맛집",울산광역시 동구 번덕로 31,35.4996611,129.4248525,울산
show,2TV생생정보,자연애,restaurant,2TV생생정보 1651회 보양오리백숙 맛집,인천광역시 강화군 화도면 마니산로 472,37.6320993,126.443154,인천
show,2TV생생정보,계산동 물꽁오리,restaurant,"2TV생생정보 1615회 매콤오리주물럭, 간장오리불고기 맛집",인천광역시 계양구 계산천동로 51 물꽁오리,37.5374191,126.7277486,인천
show,2TV생생정보,고가네본가왕족발보쌈감자탕 본점,restaurant,"2TV생생정보 1654회 족발, 불족발, 보쌈, 감자탕 맛집",인천광역시 남동구 남동대로 913,37.463917,126.7078165,인천
show,2TV생생정보,복마중 인천1호점,restaurant,"2TV생생정보 1615회 복맑은탕, 복불고기 맛집",인천광역시 남동구 남동대로747번길 7 1층,37.4489453,126.7068897,인천
show,2TV생생정보,옥심국수,restaurant,2TV생생정보 1576회 비빔막국수 맛집,인천광역시 남동구 당좌로 7,37.4567046,126.718026,인천
show,2TV생생정보,가마고개,restaurant,2TV생생정보 1620회 족발골뱅이 맛집,인천광역시 미추홀구 낙섬서로 38,37.4526884,126.635669,인천
show,2TV생생정보,이모네부침,restaurant,2TV생생정보 1591회 하트전 맛집,인천광역시 미추홀구 인하로266번길 29 1층,37.4466828,126.6778995,인천
show,2TV생생정보,싱싱부평어시장,restaurant,"2TV생생정보 1612회 모둠회정식, 물회정식 맛집",인천광역시 부평구 대정로 42,37.4954133,126.7250623,인천
show,2TV생생정보,청라다슬기해신탕,restaurant,2TV생생정보 1578회 다슬기해신탕 맛집,인천광역시 서구 청라커낼로 229-9,37.5304923,126.644058,인천
show,2TV생생정보,군봉묵은지김치찜,restaurant,2TV생생정보 1581회 묵은지찜 맛집,인천광역시 연수구 비류대로150번길 13,37.428491,126.6514232,인천
show,2TV생생정보,따룽훠궈 송도점,restaurant,2TV생생정보 1188회 황제샤부샤부,인천광역시 연수구 세트럴로 160 103동 C동 2층,37.394332,126.640779,인천
show,2TV생생정보,황강짬뽕,restaurant,2TV생생정보 1649회 철판조개짬뽕 맛집,인천광역시 연수구 테크노파크로111번길 8 2층,37.3858313,126.6438226,인천
show,2TV생생정보,황금손해물칼국수 무의점,restaurant,"2TV생생정보 1607회 꽃게칼국수, 해물파전 맛집",인천광역시 중구 대무의로 309-17,37.3887482,126.4263864,인천
show,2TV생생정보,어부신광호,restaurant,2TV생생정보 1577회 꽃무지개물회 맛집,인천광역시 중구 선녀바위로55번길 14,37.4416725,126.3790791,인천
show,2TV생생정보,을왕리빵판다카페,restaurant,2TV생생정보 1560회 크림치즈바게트 맛집,인천광역시 중구 용유로745번길 14,37.4670778,126.3722548,인천
show,2TV생생정보,양자강,restaurant,"2TV생생정보 1579회 왕갈비짬뽕, 중식닭고기볶음 맛집",인천광역시 중구 용유서로 494,37.4620226,126.372014,인천
show,2TV생생정보,시골쌈밥,restaurant,2TV생생정보 1554회 우렁이쌈밥정식 맛집,인천광역시 중구 우현로35번길 8,37.4705772,126.6268733,인천
show,2TV생생정보,영종원조국수,restaurant,2TV생생정보 1626회 김치말이국수 맛집,인천광역시 중구 운중로48번길 9,37.4924188,126.538727,인천
show,2TV생생정보,작약도,restaurant,2TV생생정보 1590회 모둠해산물세트 맛집,인천광역시 중구 은하수로 12 2층,37.4923063,126.580962,인천
show,2TV생생정보,만다복,restaurant,2TV생생정보 325회 백년짜장/과파육,인천광역시 중구 차이나타운로 36,37.476068,126.619269,인천
show,2TV생생정보,공가네,restaurant,2TV생생정보 228회 대왕카스테라,인천광역시 중구 차이나타운로 46,37.47538,126.619235,인천
show,2TV생생정보,화정상회,restaurant,2TV생생정보 1556회 숯불생선구이 맛집,전라남도 고흥군 고흥읍 시장천변길 29-16,34.6078183,127.2865281,전라
show,2TV생생정보,과역기사님식당,restaurant,2TV생생정보 1556회 삼겹살백반 맛집,전라남도 고흥군 과역면 고흥로 2959-3,34.677155,127.3610218,전라
show,2TV생생정보,메란명가,restaurant,2TV생생정보 1616회 깨비정식 맛집,전라남도 곡성군 곡성읍 곡성로 822,35.2780943,127.2941952,전라
show,2TV생생정보,미카129,cafe,2TV생생정보 1616회 토란아이스크림 맛집,전라남도 곡성군 곡성읍 곡성로 856,35.2795011,127.2984568,전라
show,2TV생생정보,모짜르트 제과점,cafe,2TV생생정보 1616회 토란빵 맛집,전라남도 곡성군 곡성읍 중앙로 93-1,35.2804206,127.2932087,전라
show,2TV생생정보,연화랑,restaurant,2TV생생정보 1558회 중화요리무제한 맛집,전라남도 광양시 광양읍 서천1길 57,34.970605,127.579078,전라
show,2TV생생정보,옛날쑥붕어빵,cafe,2TV생생정보 1668회 쑥붕어빵 맛집,전라남도 광양시 옥룡면 신재로 735,35.0261042,127.6165823,전라
show,2TV생생정보,나루터횟집,restaurant,"2TV생생정보 1668회 재첩국수, 돼지고기육전 맛집",전라남도 광양시 진월면 망덕길 143,34.9667499,127.7572548,전라
show,2TV생생정보,죽순닭국수,restaurant,"2TV생생정보 1612회 죽순닭국수, 대잎계란 맛집",전라남도 담양군 담양읍 객사3길 15,35.3239436,126.982602,전라
show,2TV생생정보,옛날진미국수,restaurant,"2TV생생정보 1565회 멸치국물국수, 열무비빔국수 맛집",전라남도 담양군 담양읍 객사3길 26,35.3241081,126.9835106,전라
show,2TV생생정보,담양애꽃,restaurant,2TV생생정보 1629회 수제떡갈비 맛집,전라남도 담양군 봉산면 죽향대로 723,35.2729621,126.972575,전라
show,2TV생생정보,꾸지뽕 왕꽈배기,cafe,2TV생생정보 1658회 꽈배기 맛집,전라남도 목포시 남해로63번길 24,34.7922207,126.4030726,전라
show,2TV생생정보,목포상회,restaurant,2TV생생정보 1658회 떡갈비 맛집,전라남도 목포시 동부로21번길 20-1,34.8049016,126.3923548,전라
show,2TV생생정보,남도랑,restaurant,"2TV생생정보 1653회 낙지탕탕이, 낙지호롱구이 맛집",전라남도 목포시 옥암로54번길 5,34.8045902,126.4293178,전라
show,2TV생생정보,꽃불구이,restaurant,"2TV생생정보 1630회 삼겹살, 항정살, 돼지갈비 맛집",전라남도 목포시 원형로 30,34.7980041,126.4326149,전라
show,2TV생생정보,신흥회식당,restaurant,"2TV생생정보 1658회 낙지호롱, 전어회무침 맛집",전라남도 목포시 자유로 122,34.7930486,126.4029616,전라
show,2TV생생정보,백년홍어수산,restaurant,2TV생생정보 1658회 홍어 맛집,"전라남도 목포시 자유로 122 자유시장 79,80호",34.7930486,126.4029616,전라
show,2TV생생정보,장터털보식당,restaurant,2TV생생정보 1582회 백반 맛집,전라남도 무안군 일로읍 시장길 17-18,34.847123,126.4942264,전라
show,2TV생생정보,김형석민물장어,restaurant,2TV생생정보 1611회 민물장어 맛집,전라남도 보성군 조성면 신동길 35,34.7828619,127.2106935,전라
show,2TV생생정보,하우리부일호횟집,restaurant,"2TV생생정보 1615회 민어백숙, 민어껍질초밥, 민어맑은탕, 민어튀김, 민어전 맛집",전라남도 신안군 임자면 독우길 234,35.1003076,126.0614378,전라
show,2TV생생정보,옛날그집,restaurant,2TV생생정보 1642회 게장백반 맛집,전라남도 여수시 통제영3길 6 1층,34.7405452,127.7342188,전라
show,2TV생생정보,미미식당,restaurant,2TV생생정보 1574회 덕자조림 맛집,전라남도 영광군 법성면 진굴비길 14-1,35.3573412,126.4478959,전라
show,2TV생생정보,갈매기식당,restaurant,2TV생생정보 1642회 한상차림 맛집,전라남도 영광군 법성면 진굴비길 46,35.3600523,126.4474061,전라
show,2TV생생정보,삭금 남촌횟집,restaurant,2TV생생정보 1627회 장흥전어밥상 맛집,전라남도 장흥군 회진면 가학회진로 903,34.4481048,126.9277193,전라
show,2TV생생정보,청호회관,restaurant,2TV생생정보 1608회 울금전복요리 맛집,전라남도 진도군 진도읍 성동길 3 1층 103호,34.4837453,126.2655183,전라
show,2TV생생정보,우리풍천장어,restaurant,"2TV생생정보 1652회 장어구이, 장어탕 맛집",전라북도 고창군 고창읍 월암수월길 104-14,35.4313639,126.723714,전라
show,2TV생생정보,넓은들,restaurant,2TV생생정보 1652회 새싹보리디저트 맛집,전라북도 고창군 공음면 학원농장길 150,35.3763158,126.5428108,전라
show,2TV생생정보,천하장사,restaurant,"2TV생생정보 1655회 갈비곱창구이, 매운갈비찜 맛집",전라북도 군산시 하신1길 14,35.9685162,126.6985078,전라
show,2TV생생정보,등구령쉼터,restaurant,"2TV생생정보 1620회 곰취전, 표고버섯전 맛집",전라북도 남원시 산내면 중황리 16,37.5254027,127.6580241,전라
show,2TV생생정보,군산식당,restaurant,2TV생생정보 1666회 백합정식 맛집,전라북도 부안군 변산면 격포항길 16,35.624195,126.471258,전라
show,2TV생생정보,변산온천산장,restaurant,"2TV생생정보 1599회 바지락죽, 바지락무침 맛집",전라북도 부안군 변산면 묵정길 83-6,35.6884088,126.558997,전라
show,2TV생생정보,화탄매운탕,restaurant,2TV생생정보 1557회 메기매운탕 맛집,전라북도 순창군 유등면 화탄길 1,35.3902944,127.1979129,전라
show,2TV생생정보,산산산,restaurant,"2TV생생정보 1551회 두릅튀김, 인삼튀김 맛집",전라북도 완주군 운주면 대둔산공원길 48,36.1165673,127.330589,전라
show,2TV생생정보,시장비빔밥,restaurant,"2TV생생정보 1624회 육회비빔밥, 모듬순대 맛집",전라북도 익산시 황등면 황등7길 25 황등시장,36.0062733,126.9452924,전라
show,2TV생생정보,다우랑,restaurant,2TV생생정보 1546회 미나리만두 맛집,전라북도 전주시 완산구 태조로 33,35.8142023,127.151015,전라
show,2TV생생정보,교동집,restaurant,2TV생생정보 1546회 물짜장 맛집,전라북도 전주시 완산구 향교길 61,35.8119107,127.152913,전라
show,2TV생생정보,카페미깡,cafe,2TV생생정보 1638회 청귤에이드 맛집,제주특별자치도 서귀포시 남원읍 하례리 964-2,33.3420367,126.5884214,제주
show,2TV생생정보,제주운정이네,restaurant,"2TV생생정보 1658회 생갈치구이, 생갈치조림 맛집",제주특별자치도 서귀포시 중산간서로 726,33.2635619,126.4378075,제주
show,2TV생생정보,갑사 서울식당,restaurant,2TV생생정보 1556회 제철나물한상 맛집,충청남도 공주시 계룡면 갑사로 476-28,36.3690581,127.1800756,충청
show,2TV생생정보,마세오른,restaurant,"2TV생생정보 1623회 닭불고기, 탕수기 맛집",충청남도 공주시 반포면 정광터1길 98-20,36.4024883,127.2313679,충청
show,2TV생생정보,시장정육점식당,restaurant,2TV생생정보 1655회 알밤육회비빔밥 맛집,충청남도 공주시 백미고을길 10-5,36.465866,127.1222399,충청
show,2TV생생정보,마곡사서울식당,restaurant,2TV생생정보 1632회 산채정식 맛집,충청남도 공주시 사곡면 마곡상가길 13-2,36.556142,127.0197299,충청
show,2TV생생정보,솥뚜껑 매운탕,restaurant,2TV생생정보 1576회 메기새우매운탕 맛집,충청남도 공주시 사곡면 아래안영골길 4,36.4793977,127.0476227,충청
show,2TV생생정보,황해도전통손만두국,restaurant,2TV생생정보 1635회 황해도식호박만두전골 맛집,충청남도 공주시 우금티로 744,36.4512645,127.1343329,충청
show,2TV생생정보,해나루도넛츠,cafe,2TV생생정보 1615회 찹쌀꽈배기 맛집,충청남도 당진시 당진시장북길 49,36.8909244,126.6299418,충청
show,2TV생생정보,슬하네회타운,restaurant,2TV생생정보 1560회 꽃게찜 맛집,충청남도 보령시 대천항로 334,36.3264174,126.5088676,충청
show,2TV생생정보,오양손칼국수,restaurant,"2TV생생정보 1550회 키조개손칼국수, 보리밥 맛집",충청남도 보령시 오천면 소성안길 55,36.4390073,126.5220135,충청
show,2TV생생정보,오천항수산물판매센터 8호점,restaurant,2TV생생정보 1551회 키조개 맛집,충청남도 보령시 오천면 오천해안로 782-5,36.4393372,126.5209232,충청
show,2TV생생정보,카페그랑블루,cafe,2TV생생정보 1550회 머드빙수 맛집,충청남도 보령시 해안로 484,36.3398019,126.5474635,충청
show,2TV생생정보,만선1호,restaurant,2TV생생정보 1547회 광어회 맛집,충청남도 서천군 서면 서인로 64,36.1301055,126.503195,충청
show,2TV생생정보,두부랑 가마솥손두부,restaurant,"2TV생생정보 1548회 두부낙지전골, 두부낙지불낙보쌈 맛집",충청남도 아산시 탕정면 탕정면로8번길 69,36.7966584,127.062515,충청
show,2TV생생정보,청미래,restaurant,2TV생생정보 1656회 오리주물럭 맛집,충청남도 예산군 덕산면 덕산향교길 114-28,36.7002904,126.6534181,충청
show,2TV생생정보,왕꼬막나라,restaurant,2TV생생정보 1594회 꼬막정식 맛집,충청남도 천안시 동남구 목천읍 교천지산길 331-29,36.7975068,127.1913978,충청
show,2TV생생정보,오미오미 수제만두전골&칡냉면,restaurant,2TV생생정보 1650회 손만두전골 맛집,충청남도 천안시 동남구 북면 동평3길 10,36.7718393,127.2472738,충청
show,2TV생생정보,설촌냉면석갈비,restaurant,2TV생생정보 1545회 석갈비 맛집,충청남도 천안시 동남구 천안천8길 63,36.8228124,127.157034,충청
show,2TV생생정보,안면도꽃지수산식당,restaurant,2TV생생정보 1636회 붕장어볶음 맛집,충청남도 태안군 안면읍 꽃지1길 187-5,36.5000094,126.3441623,충청
show,2TV생생정보,서울식당,restaurant,"2TV생생정보 1595회 마늘떡갈비, 더덕구이 맛집",충청북도 단양군 단양읍 고수동굴길 4-10,36.9885878,128.3819576,충청
show,2TV생생정보,단양너마늘위한치킨,restaurant,2TV생생정보 1610회 통마늘닭강정 맛집,충청북도 단양군 단양읍 도전5길 31,36.982472,128.3698933,충청
show,2TV생생정보,제이비커피,restaurant,2TV생생정보 1610회 도담삼봉빙수 맛집,충청북도 단양군 단양읍 별곡12길 10-4,36.9873557,128.370354,충청
show,2TV생생정보,가연,restaurant,2TV생생정보 1569회 마늘떡갈비 맛집,충청북도 단양군 단양읍 삼봉로 87,36.979156,128.353297,충청
show,2TV생생정보,안성식당,restaurant,"2TV생생정보 1593회 다슬기국밥, 다슬기전 맛집",충청북도 영동군 황간면 영동황간로 1618,36.2157875,127.8978763,충청
show,2TV생생정보,옥천묵집,restaurant,2TV생생정보 1614회 도토리냉묵밥 맛집,충청북도 옥천군 옥천읍 향수7길 8,36.3148526,127.5830534,충청
show,2TV생생정보,청풍떡갈비,restaurant,2TV생생정보 1553회 마늘떡갈비 맛집,충청북도 제천시 금성면 청풍호로 1643,37.0226211,128.1752777,충청
show,2TV생생정보,팔송황기더덕막국수,restaurant,"2TV생생정보 1571회 더덕막국수, 물수육 맛집",충청북도 제천시 봉양읍 주포로 71,37.1325069,128.1204478,충청
show,2TV생생정보,오디향,restaurant,2TV생생정보 1656회 꽃비빔밥 맛집,충청북도 제천시 의림대로 594,37.1792411,128.2094573,충청
show,2TV생생정보,제천황기명태 청풍점,restaurant,2TV생생정보 1617회 황기명태조림 맛집,충청북도 제천시 청풍면 청풍호로52길 16-41,37.0001892,128.1661266,충청
show,2TV생생정보,담담,restaurant,2TV생생정보 1624회 육전 맛집,충청북도 제천시 풍양로 108 나동 1층 132호,37.136624,128.2113501,충청
show,2TV생생정보,청해식당,restaurant,2TV생생정보 1640회 손칼국수 맛집,충청북도 진천군 진천읍 원덕로 390 진천전통시장 A동 129호,36.8539898,127.4483083,충청
show,2TV생생정보,백곡막걸리,restaurant,2TV생생정보 1640회 인삼튀김 맛집,충청북도 진천군 진천읍 원덕로 390 진천전통시장 B동 140호,36.8539898,127.4483083,충청
show,2TV생생정보,대산보리밥,restaurant,"2TV생생정보 1563회 보리밥, 묵은지청국장 맛집",충청북도 청주시 서원구 2순환로 1461-1,36.6093606,127.4444845,충청
show,2TV생생정보,천용맛집,restaurant,2TV생생정보 1568회 짜글이 맛집,충청북도 충주시 금제6길 2-1,36.988099,127.9265451,충청
show,2TV생생정보,해남하우스,restaurant,"2TV생생정보 1673회 해물탕, 해물찜 맛집",충청북도 충주시 대소원면 첨단산업1로 71 1층,36.9926916,127.8339768,충청
show,2TV생생정보,대성야채만두,restaurant,2TV생생정보 1627회 4색만두 맛집,충청북도 충주시 충인6길 2,36.9741119,127.9292362,충청
show,2TV생생정보,꼬꼬댁,restaurant,2TV생생정보 24회 통닭,서울특별시 동대문구 제기동 635-1,37.5804222,127.0424972,서울
show,2TV생생정보,남원통닭,restaurant,2TV생생정보 1501회 통닭,서울특별시 동대문구 제기동 635-1,37.5804222,127.0424972,서울
show,2TV생생정보,종구네통닭,restaurant,2TV생생정보 24회 통닭,서울특별시 동대문구 제기동 635-1,37.5804222,127.0424972,서울
show,2TV생생정보,감나무집기사식당,restaurant,2TV생생정보 614회 불고기백반,서울특별시 마포구 연남로 25,37.561869,126.92187,서울
show,2TV생생정보,그문화다방,restaurant,2TV생생정보 664회 뱅쇼,서울특별시 마포구 와우산로3길 49,37.545439,126.920308,서울
show,2TV생생정보,강촌원조쭈꾸미본점,restaurant,2TV생생정보 285회 산주꾸미볶음/주꾸미,서울특별시 서초구 남부순환로350길 36,37.4832626,127.036199,서울
show,2TV생생정보,오코다리 방배점,restaurant,2TV생생정보 1128회 전복코다리찜/코다리냉면,"서울특별시 서초구 방배로 62 성산빌딩 1,2층",37.4872223,126.9826981,서울
show,2TV생생정보,특돼지 목동본점,restaurant,2TV생생정보 351회 치즈폭포불고기,서울특별시 양천구 오목로50길 1 1층,37.5256968,126.8637362,서울
show,2TV생생정보,송원 마포 돼지갈비,restaurant,2TV생생정보 221회 돼지갈비,서울특별시 영등포구 도림로147길 1,37.5165592,126.8893751,서울
show,2TV생생정보,일미집,restaurant,2TV생생정보 495회 감자탕백반/감자탕,서울특별시 용산구 후암로 1-1,37.5461092,126.9782559,서울
show,2TV생생정보,창신동매운족발,restaurant,2TV생생정보 416회 매운족발,서울특별시 종로구 종로51길 23,37.572955,127.0115145,서울
show,2TV생생정보,인천당,cafe,2TV생생정보 283회 생과자맛집,인천광역시 중구 참외전로 138,37.4767063,126.6280998,인천
show,2TV아침,도암식당,restaurant,2TV아침 178회 오삼불고기,강원도 평창군 대관령면 대관령로 103,37.672497,128.708006,강원
show,2TV아침,오대산 산채전문점,restaurant,2TV아침 311회 산채정식/나물비빔밥,서울특별시 서초구 남부순환로 2640-11 1층,37.484686,127.03991,서울
show,2TV아침,풍년쌀농산,restaurant,"2TV아침 144회, 235회 떡볶이 맛집 ",서울특별시 종로구 북촌로5가길 32,37.580888,126.981668,서울
show,2TV저녁생생정보,묵호문어집,restaurant,2TV저녁생생정보 119회 참문어,경상북도 영주시 영주로224번길 8,36.825469,128.623837,경상
show,2TV저녁생생정보,오대산 산채전문점,restaurant,2TV저녁생생정보 22회 30첩 산채정식,서울특별시 서초구 남부순환로 2640-11 1층,37.484686,127.03991,서울
show,2TV저녁생생정보,한옥집 김치찜 본점,restaurant,2TV저녁생생정보 4회 김치찜,서울특별시 서대문구 통일로9길 12 ,37.567222,126.964322,서울
show,2TV저녁생생정보,최영희언양불고기,restaurant,2TV저녁생생정보 44회 바싹불고기,서울특별시 성동구 무학봉28길 21 경남빌딩,37.561562,127.0341272,서울
show,6시 내고향,성훈,restaurant,6시내고향 7572회 대구요리 맛집,강원도 강릉시 창해로14번길 55-7,37.7719317,128.9489348,강원
show,6시 내고향,묵꼬양 카페,restaurant,6시내고향 7512회 대추차 맛집,강원도 동해시 산제골2길 19 2층,37.5527846,129.1123213,강원
show,6시 내고향,홍문어,restaurant,6시내고향 7569회 문어요리 맛집,강원도 삼척시 근덕면 장호항길 111 장호어민회관 1층,37.2881692,129.3175727,강원
show,6시 내고향,러브마린 홍게도시락&홍게밀키트,restaurant,"6시내고향 7609회 홍게도시락, 홍게라면밀키트 맛집",강원도 속초시 중앙로129번길 46 2호,38.2046703,128.5894119,강원
show,6시 내고향,경기도은혜횟집,restaurant,6시내고향 7576회 오징어순대 맛집,강원도 속초시 중앙로147번길 16,38.2044495,128.5901534,강원
show,6시 내고향,현태네튀김,restaurant,"6시내고향 7576회 왕새우튀김, 오징어순대, 홍게라면 맛집",강원도 속초시 중앙로147번길 16,38.2044495,128.5901534,강원
show,6시 내고향,황금어장수산,restaurant,"6시내고향 7576회 물회 , 오징어회 맛집",강원도 속초시 중앙로147번길 16,38.2044495,128.5901534,강원
show,6시 내고향,속초동해닭강정,restaurant,6시내고향 7576회 닭강정 맛집,강원도 속초시 중앙로147번길 16 123호,38.2044495,128.5901534,강원
show,6시 내고향,이부자마약곳간,cafe,6시내고향 7576회 크런치벌꿀아이스크림 맛집,강원도 속초시 중앙로147번길 16 속초관광수산시장 1층 137호,38.2044495,128.5901534,강원
show,6시 내고향,용천식당,restaurant,"6시내고향 7571회 손칼국수, 장칼국수 맛집",강원도 양양군 양양읍 남문5길 11-19,38.0749389,128.6236931,강원
show,6시 내고향,마포숯불갈비 양양군5호점,restaurant,6시내고향 7571회 송이한우전골 맛집,강원도 양양군 양양읍 남문로 16-10,38.0735945,128.6211526,강원
show,6시 내고향,남양주덕소횟집,restaurant,6시내고향 7651회 연어요리 맛집,강원도 양양군 현남면 안남애길 45-4,37.9447787,128.785883,강원
show,6시 내고향,가도횟집,restaurant,"6시내고향 7549회 부시리회 , 부시리조림, 부시리매운탕, 부시리전 맛집",강원도 양양군 현북면 동해대로 1296,38.0079932,128.7296392,강원
show,6시 내고향,산골황태3대식당,restaurant,6시내고향 7597회 황태요리 맛집,강원도 인제군 북면 미시령로 1368,38.1809531,128.3086722,강원
show,6시 내고향,딸부잣집,restaurant,6시내고향 7570회 닭목살구이 맛집,강원도 정선군 고한읍 고한4길 24,37.2016291,128.8534095,강원
show,6시 내고향,연탄구이다원,restaurant,6시내고향 7570회 꼬들살구이 맛집,강원도 정선군 고한읍 고한4길 32-1,37.2015034,128.8538385,강원
show,6시 내고향,상상초콜릿,cafe,"6시내고향 7570회 감자빵, 마카롱 맛집",강원도 정선군 고한읍 고한4길 38-6,37.2012402,128.854098,강원
show,6시 내고향,같이,cafe,"6시내고향 7516회 명이김, 수리취떡 맛집",강원도 정선군 정선읍 5일장길 38-4,37.3803814,128.6644345,강원
show,6시 내고향,곤드레딱주기,restaurant,"6시내고향 7516회 메밀부치기, 올챙이국수, 콧등치기국수 맛집",강원도 정선군 정선읍 봉양7길 42 정선아리랑시장 공연장 앞,37.3803926,128.6651696,강원
show,6시 내고향,대룡산막국수,restaurant,6시내고향 7563회 막국수 맛집,강원도 춘천시 동내면 동내로 181,37.8501902,127.7715849,강원
show,6시 내고향,태백닭갈비,restaurant,6시내고향 7574회 물닭갈비 맛집,강원도 태백시 중앙남1길 10,37.1713636,128.9906517,강원
show,6시 내고향,연봉은정이네,restaurant,6시내고향 7536회 홍총떡 맛집,강원도 홍천군 홍천읍 꽃뫼로 112 가-24,37.6912111,127.8860962,강원
show,6시 내고향,혜숙이네 홍총떡,restaurant,"6시내고향 7536회 메밀묵사발, 손만두 맛집",강원도 홍천군 홍천읍 홍천로8길 19 나동 44호,37.6912111,127.8860962,강원
show,6시 내고향,서영이네,restaurant,6시내고향 7536회 곰피미역부각 맛집,강원도 홍천군 홍천읍 홍천로8길 19 나동 63호,37.6912111,127.8860962,강원
show,6시 내고향,웰빙오골계세상,restaurant,6시내고향 7535회 오골계요리 맛집,강원도 화천군 화천읍 가손이길 43,38.1004997,127.7254389,강원
show,6시 내고향,면사무소앞안흥찐빵,cafe,6시내고향 7640회 안흥찐빵 맛집,강원도 횡성군 안흥면 안흥로 30,37.4121228,128.1566176,강원
show,6시 내고향,콩두레식당,restaurant,6시내고향 7626회 손두부정식 맛집,경기도 가평군 가평읍 장터2길 12 106호,37.8299053,127.5148549,경기
show,6시 내고향,옐로망고,cafe,"6시내고향 7626회 과일, 주스 맛집",경기도 가평군 가평읍 장터2길 12 창업경제타운 103호,37.8299053,127.5148549,경기
show,6시 내고향,먹거리마당,restaurant,"6시내고향 7637회 녹두전, 홍어무침 맛집",경기도 고양시 일산서 일청로12번길 10 일산종합시장,37.6854332,126.7719863,경기
show,6시 내고향,부여옛날국수집,restaurant,6시내고향 7637회 오색국수 맛집,경기도 고양시 일산서구 일청로 18,37.6857889,126.7706201,경기
show,6시 내고향,충남추어탕,restaurant,6시내고향 7539회 추어탕 맛집,경기도 구리시 안골로97번길 49-1,37.5991573,127.1404433,경기
show,6시 내고향,대명횟집,restaurant,6시내고향 7564회 밴댕이 맛집,경기도 김포시 대곶면 대명항1로 110-2,37.639589,126.5426013,경기
show,6시 내고향,30년전통청수면옥,restaurant,6시내고향 7548회 냉면 맛집,경기도 동두천시 삼육사로 1043,37.8993565,127.065859,경기
show,6시 내고향,진짜맛있는찬,restaurant,6시내고향 7623회 게장 맛집,경기도 부천시 경인로 205-11 1층,37.4839808,126.7783387,경기
show,6시 내고향,윙스치킨,restaurant,6시내고향 7623회 치킨 맛집,경기도 부천시 자유로 27-4,37.4839567,126.779316,경기
show,6시 내고향,방가로두부이야기,restaurant,6시내고향 7530회 손두부 맛집,경기도 성남시 중원구 산성대로518번길 8 1층,37.4567745,127.1642759,경기
show,6시 내고향,황금족발순대국,restaurant,"6시내고향 7596회 온족발, 냉족발 맛집",경기도 수원시 영통구 인계로189번길 119-1 현대힐스테이트아파트,37.2703105,127.0402021,경기
show,6시 내고향,도톰카페,cafe,6시내고향 7596회 인절미크로플 맛집,경기도 수원시 영통구 중부대로256번길 48 1층(매탄동),37.2726127,127.0427493,경기
show,6시 내고향,먹촌,restaurant,6시내고향 7596회 파스타 맛집,경기도 수원시 영통구 중부대로256번길 48 1층(매탄동),37.2726127,127.0427493,경기
show,6시 내고향,팜쿠킹 건조도토리묵잡채 연잎밥,restaurant,6시내고향 7624회 건조도토리묵잡채밀키트 맛집,경기도 수원시 팔달구 수원천로255번길 6 가동 2층 2228호,37.276842,127.0187071,경기
show,6시 내고향,지아베이커리,cafe,6시내고향 7624회 휘낭시에 맛집,경기도 수원시 팔달구 수원천로255번길 6 영동시장 A동 2층 2226호,37.276842,127.0187071,경기
show,6시 내고향,금강패류,restaurant,"6시내고향 7566회 대게찜, 바닷가재찜 맛집",경기도 시흥시 오이도로 167,37.3458472,126.6882008,경기
show,6시 내고향,목포수산,restaurant,6시내고향 7566회 광어회 맛집,경기도 시흥시 오이도로 173,37.3453926,126.6880766,경기
show,6시 내고향,북동삼거리손칼국수 대부도본점,restaurant,"6시내고향 7569회 바지락볶음칼국수, 바지락닭칼국수, 해물파전 맛집",경기도 안산시 단원구 대부황금로 1273,37.1924971,126.6460278,경기
show,6시 내고향,은성해물탕,restaurant,"6시내고향 7593회 낙지연포탕, 해물찜 맛집",경기도 안산시 단원구 선부광장1로 10 동양빌딩,37.3355044,126.8071871,경기
show,6시 내고향,주주바 카페,restaurant,"6시내고향 7629회 대추, 강정 맛집",경기도 안성시 보개면 구송동길 9,37.0012312,127.3034371,경기
show,6시 내고향,산야초효소가든,restaurant,6시내고향 7629회 백숙 맛집,경기도 안성시 보개면 신장길 175,37.0457859,127.2735293,경기
show,6시 내고향,만복닭집,restaurant,6시내고향 7629회 치킨 맛집,경기도 안성시 시장길 13,37.0068767,127.2685546,경기
show,6시 내고향,한경식당,restaurant,6시내고향 7629회 한우국밥 맛집,경기도 안성시 중앙로372번길 21,37.0067638,127.2679276,경기
show,6시 내고향,안일옥 본점,restaurant,6시내고향 7607회 안성장터국밥 맛집,경기도 안성시 중앙로411번길 20,37.0076414,127.2728901,경기
show,6시 내고향,할머니네떡볶이,restaurant,6시내고향 7580회 떡볶이 맛집,경기도 안양시 만안구 냉천로 196,37.3976235,126.9195788,경기
show,6시 내고향,박보성수제돈까스,restaurant,6시내고향 7580회 돈가스 맛집,경기도 안양시 만안구 장내로119번길 17,37.3974089,126.9205509,경기
show,6시 내고향,신안감자탕 집밥,restaurant,6시내고향 7580회 묵은지닭볶음탕 맛집,경기도 안양시 만안구 장내로99번길 44 1층,37.3967048,126.9185037,경기
show,6시 내고향,농가맛집 매화당,restaurant,"6시내고향 7622회 연푸국, 맥적구이 맛집",경기도 양주시 남면 휴암로443번길 47,37.8938775,126.9574745,경기
show,6시 내고향,불고기맛난집,restaurant,6시내고향 7545회 연잎소불고기전골 맛집,경기도 양평군 양서면 북한강로 10-1 1층,37.5446915,127.3205768,경기
show,6시 내고향,창범이네맛집,restaurant,6시내고향 7545회 연근코다리조림 맛집,경기도 양평군 양서면 양수로150번길 3-11,37.5449409,127.3197597,경기
show,6시 내고향,광이원,restaurant,"6시내고향 7651회 한우불고기, 삼치구이, 더덕쌈 맛집",경기도 양평군 용문면 용문산로 120-11,37.5074809,127.6058319,경기
show,6시 내고향,순흥식당,restaurant,6시내고향 7607회 백반 맛집,경기도 양평군 청운면 용두로139번길 14,37.5554193,127.7091302,경기
show,6시 내고향,장단콩사랑,restaurant,6시내고향 7520회 두부 맛집,경기도 연천군 장남면 술이홀로 123,37.9727591,126.8863948,경기
show,6시 내고향,물향기만두 오산점,restaurant,6시내고향 7585회 표고만두 맛집,경기도 오산시 성호새싹길 41,37.152593,127.0702029,경기
show,6시 내고향,또바기동태탕 본점,restaurant,"6시내고향 7585회 동태내장두루치기, 동태스테이크 맛집",경기도 오산시 시장길 8,37.1495897,127.0691793,경기
show,6시 내고향,맛뜰,cafe,"6시내고향 7591회 견과류바, 강정 맛집",경기도 용인시 처인구 금령로93번길 10,37.2363357,127.2065802,경기
show,6시 내고향,용인오복순대2호점,restaurant,"6시내고향 7591회 족발, 순댓국 맛집",경기도 용인시 처인구 용문로 190,37.2371989,127.2067109,경기
show,6시 내고향,단골집,restaurant,"6시내고향 7603회 돼지갈비, 오징어초무침 맛집",경기도 파주시 파주읍 연풍초교길 81,37.8292712,126.8371003,경기
show,6시 내고향,평택주물럭,restaurant,6시내고향 7578회 간장주물럭 맛집,경기도 평택시 평택1로9번길 52,36.9945668,127.0850306,경기
show,6시 내고향,바위섬가든,restaurant,"6시내고향 7617회 이동갈비, 양념소갈비 맛집",경기도 포천시 이동면 성장로 1156-40,38.0200862,127.3616385,경기
show,6시 내고향,곰비님비,restaurant,6시내고향 7614회 전 맛집,경기도 하남시 하남대로801번길 65 103호,37.5380883,127.2066721,경기
show,6시 내고향,어수산,restaurant,6시내고향 7641회 중하새우요리 맛집,경기도 화성시 서신면 궁평항로 1049 A동 78호,37.1153303,126.6837746,경기
show,6시 내고향,광복호,restaurant,6시내고향 7610회 전어 맛집,경기도 화성시 서신면 궁평항로 1049-24,37.1157218,126.6821115,경기
show,6시 내고향,서해수산,restaurant,6시내고향 7610회 꽃게 맛집,"경기도 화성시 서신면 궁평항로 1049-24 B동 39,40호 서해수산",37.1157218,126.6821115,경기
show,6시 내고향,거시기수산,restaurant,"6시내고향 7554회 농어회 , 농어물회 , 농어맑은탕 맛집",경기도 화성시 서신면 전곡항로14번길 6-10,37.1852402,126.6521424,경기
show,6시 내고향,가야한우마을,restaurant,"6시내고향 7554회 한우구이, 한우채소불고기 맛집",경상남도 고성군 고성읍 우산2길 28-59,34.9992172,128.3308097,경상
show,6시 내고향,군령포하모자연산횟집,restaurant,6시내고향 7589회 갯장어 맛집,경상남도 고성군 삼산면 두포5길 426,34.9172326,128.2973173,경상
show,6시 내고향,으뜸왕만두,restaurant,"6시내고향 7546회 김치왕만두, 고기왕만두 맛집",경상남도 김해시 내외중앙로 35 아카데미 빌딩 108호,35.2332008,128.8660615,경상
show,6시 내고향,전통칼국수,restaurant,"6시내고향 7546회 콩국, 냉콩칼국수, 식혜 맛집",경상남도 김해시 함박로101번길 10,35.2330138,128.8656058,경상
show,6시 내고향,남양식당,restaurant,"6시내고향 7529회 멸치회 무침, 멸치쌈밥 맛집",경상남도 남해군 미조면 미조로 230,34.7107024,128.0477778,경상
show,6시 내고향,베를린성,restaurant,6시내고향 7534회 소시지 맛집,경상남도 남해군 삼동면 독일로 61-1,34.7985431,128.0407582,경상
show,6시 내고향,뚜꺼비집,restaurant,6시내고향 7530회 갑오징어 맛집,경상남도 남해군 삼동면 동부대로1030번길 42-26,34.7936993,128.052841,경상
show,6시 내고향,생선횟집,restaurant,"6시내고향 7534회 우럭미역국, 해초회 비빔밥 맛집",경상남도 남해군 설천면 노량로183번길 22,34.9414499,127.8752047,경상
show,6시 내고향,금산횟집,restaurant,6시내고향 7579회 병어요리 맛집,경상남도 남해군 이동면 남해대로1553번길 31,34.7635456,127.9484812,경상
show,6시 내고향,대추나무집,restaurant,"6시내고향 7630회 오리백숙, 손두부 맛집",경상남도 양산시 원동면 금천길 9,35.4806682,128.9826376,경상
show,6시 내고향,북면오리농원,restaurant,6시내고향 7586회 오리탕 맛집,경상남도 창원시 성산구 마디미로 28 상남시장 D동 3층 308호,35.2222083,128.683374,경상
show,6시 내고향,먹거리천국 상남시장,restaurant,"6시내고향 7586회 선짓국, 소고깃국, 추어탕 맛집",경상남도 창원시 성산구 마디미로 28 A동 264호,35.2222099,128.6834028,경상
show,6시 내고향,복도요거트,cafe,6시내고향 7586회 요구르트 맛집,경상남도 창원시 성산구 마디미로 28 C동 353호,35.2222099,128.6834028,경상
show,6시 내고향,봉이포장마차,restaurant,6시내고향 7596회 고등어요리 맛집,경상남도 통영시 욕지면 자부포길 38-16,34.6352978,128.2695876,경상
show,6시 내고향,하옹촌재첩식당,restaurant,6시내고향 7539회 재첩국/재첩회 무침 맛집,경상남도 하동군 하동읍 섬진강대로 1877,35.0584549,127.766922,경상
show,6시 내고향,섬진강횟집,restaurant,6시내고향 7544회 참게자리장국 맛집,경상남도 하동군 하동읍 섬진강대로 2539-8,35.0890712,127.7161906,경상
show,6시 내고향,하동재첩국,restaurant,6시내고향 7556회 재첩국 맛집,경상남도 하동군 하동읍 시장1길 14 뮤직뱅크,35.0695486,127.7484862,경상
show,6시 내고향,밤골집,restaurant,6시내고향 7556회 시래깃국 맛집,경상남도 하동군 하동읍 시장1길 8,35.0699937,127.7483796,경상
show,6시 내고향,장터국밥,restaurant,"6시내고향 7550회 은어튀김, 은어회 맛집",경상남도 하동군 화개면 쌍계로 17,35.1880689,127.6238706,경상
show,6시 내고향,고향맛집,restaurant,"6시내고향 7550회 재첩회 무침, 재첩국 맛집",경상남도 하동군 화개면 쌍계로 19 화개장터,35.1885809,127.6244502,경상
show,6시 내고향,대구식육식당,restaurant,6시내고향 7621회 소고기찌개 맛집,경상북도 경산시 용성면 원효로 1426,35.7927774,128.8759881,경상
show,6시 내고향,보문뜰,restaurant,"6시내고향 7510회 한우물회 , 한우육회 비빔밥, 한우떡갈비 맛집",경상북도 경주시 경감로 142-3,35.842737,129.2518071,경상
show,6시 내고향,부산찐빵,cafe,"6시내고향 7650회 찐빵, 찹쌀도넛 맛집",경상북도 경주시 원화로 240,35.8420927,129.2175017,경상
show,6시 내고향,연화식당,restaurant,6시내고향 7527회 한식뷔페 맛집,경상북도 경주시 원화로281번길 11,35.8453317,129.2163579,경상
show,6시 내고향,장영선원조지례삼거리불고기,restaurant,6시내고향 7626회 흑돼지석쇠구이 맛집,경상북도 김천시 지례면 장터길 64,35.9877835,128.0295931,경상
show,6시 내고향,바다친구회,restaurant,6시내고향 7628회 참돔 맛집,경상북도 김천시 황금시장3길 11-10,36.1167121,128.1249806,경상
show,6시 내고향,모심정,restaurant,6시내고향 7621회 묵조밥 맛집,경상북도 문경시 마성면 봉생1길 13,36.6621547,128.119125,경상
show,6시 내고향,상차림식당 1호점,restaurant,6시내고향 7643회 사과돼지갈비 맛집,경상북도 문경시 문경읍 문희로 41-15,36.7355641,128.1074367,경상
show,6시 내고향,황토성,restaurant,6시내고향 7643회 족살찌개 맛집,경상북도 문경시 문경읍 새재2길 18,36.760032,128.0780351,경상
show,6시 내고향,문경중앙시장협동조합,store,6시내고향 7643회 건채밀키트 맛집,경상북도 문경시 상신로 5-3,36.5948242,128.1984252,경상
show,6시 내고향,두락,restaurant,6시내고향 7652회 삼백음식한상 맛집,경상북도 상주시 식산로 112,36.4067258,128.1819832,경상
show,6시 내고향,고바우식당,restaurant,6시내고향 7645회 선지국밥 맛집,경상북도 성주군 성주읍 시장길 43-1 103동 101호,35.914853,128.2857564,경상
show,6시 내고향,토석집,restaurant,6시내고향 7595회 안동식혜 맛집,경상북도 안동시 번영4길 10,36.5650879,128.7291232,경상
show,6시 내고향,안동시골찜닭,restaurant,6시내고향 7595회 찜닭 맛집,경상북도 안동시 번영길 6,36.5655403,128.7273578,경상
show,6시 내고향,헛제사밥까치구멍집,restaurant,6시내고향 7564회 헛제사밥 맛집,경상북도 안동시 석주로 203,36.5776887,128.7581391,경상
show,6시 내고향,김가네식당,restaurant,6시내고향 7599회 물가자미요리 맛집,경상북도 영덕군 축산면 축산항길 36,36.5080938,129.4466265,경상
show,6시 내고향,홍삼품은낙지,restaurant,6시내고향 7631회 인삼왕갈비탕 맛집,경상북도 영주시 봉현면 신재로 857,36.8689533,128.5296037,경상
show,6시 내고향,영주전통묵집식당,restaurant,6시내고향 7631회 태평초 맛집,경상북도 영주시 원당로163번길 24,36.8258963,128.6289226,경상
show,6시 내고향,영월식당,restaurant,6시내고향 7531회 매운순대곱창전골 맛집,경상북도 영주시 중앙로81번길 39,36.8238486,128.6229794,경상
show,6시 내고향,퍼즈유어셀프,cafe,6시내고향 7516회 차 맛집,경상북도 의성군 안계면 소보안계로 2073,36.3846864,128.4355555,경상
show,6시 내고향,뿔난염소식당,restaurant,6시내고향 7618회 염소요리 맛집,경상북도 의성군 의성읍 북부길 342,36.3828361,128.6789965,경상
show,6시 내고향,농가맛집 두연,restaurant,6시내고향 7642회 청송사과밥상 맛집,경상북도 청송군 청송읍 초막본길 40,36.4118445,129.0602664,경상
show,6시 내고향,포항해파랑맛집,restaurant,6시내고향 7538회 검은돌장어 맛집,경상북도 포항시 남구 동해면 호미로 2496,36.0241057,129.5031563,경상
show,6시 내고향,풍년오리탕,restaurant,6시내고향 7583회 오리탕 맛집,광주광역시 북구 경양로 125,35.1615827,126.905747,광주
show,6시 내고향,광신보리밥,restaurant,6시내고향 7652회 보리밥맛집,광주광역시 북구 두리봉길 2-1,35.175866,126.9314893,광주
show,6시 내고향,만수네 떡갈비,restaurant,6시내고향 7653회 떡갈비 맛집,광주광역시 서구 천변좌로 238 나동 339,35.1538613,126.9021342,광주
show,6시 내고향,육각형국밥,restaurant,6시내고향 7653회 맑은돼지국밥 맛집,광주광역시 서구 천변좌로 238 A다동 456호 쉐프먹거리길,35.1538613,126.9021342,광주
show,6시 내고향,양동통닭,restaurant,6시내고향 7653회 통닭 맛집,광주광역시 서구 천변좌로 262,35.1527557,126.9044724,광주
show,6시 내고향,동광김밥,restaurant,6시내고향 7613회 묵 맛집,대구광역시 북구 칠성시장로 19,35.8757382,128.6040838,대구
show,6시 내고향,진주식당,restaurant,6시내고향 7613회 닭곱창 맛집,대구광역시 북구 칠성시장로 35-1,35.8771723,128.6033615,대구
show,6시 내고향,영양만두식당,restaurant,6시내고향 7600회 도넛 맛집,대구광역시 서구 국채보상로52길 46,35.8672602,128.5606236,대구
show,6시 내고향,고향보리밥칼국수,restaurant,6시내고향 7600회 보리비빔밥 맛집,대구광역시 서구 국채보상로52길 51,35.8667547,128.5609932,대구
show,6시 내고향,신서문김밥,restaurant,"6시내고향 7642회 오코노미김밥, 삼각비빔만두 맛집",대구광역시 중구 큰장로26길 6 서문시장 제5지구 1층 제1호,35.8688497,128.5807879,대구
show,6시 내고향,재연이분식,restaurant,6시내고향 7642회 칼제비 맛집,대구광역시 중구 큰장로28길 28,35.8694647,128.5807674,대구
show,6시 내고향,서울치킨,restaurant,6시내고향 7647회 치킨 맛집,대전광역시 동구 대전로791번길 28,36.3297717,127.4316496,대전
show,6시 내고향,옛날손칼국수,restaurant,6시내고향 7626회 칼국수 맛집,대전광역시 서구 월평중로4번길 82,36.3540697,127.3685334,대전
show,6시 내고향,가덕횟집,restaurant,6시내고향 7515회 숭어요리 맛집,부산광역시 강서구 가덕해안로 1217,35.0117274,128.8273933,부산
show,6시 내고향,월화횟집,restaurant,6시내고향 7652회 붕장어요리 맛집,부산광역시 기장군 일광면 문오성길 501-3 1층,35.2982662,129.2593989,부산
show,6시 내고향,동해물회,restaurant,6시내고향 7558회 물회 맛집,부산광역시 부산진구 서전로 15 2층,35.1579455,129.0613408,부산
show,6시 내고향,대상호,restaurant,6시내고향 7582회 성대요리 맛집,부산광역시 서구 송도해변로 10-9 암남어촌계,35.0707949,129.0189204,부산
show,6시 내고향,삼영횟집,restaurant,6시내고향 7579회 물회 맛집,부산광역시 서구 송도해변로 83-1,35.0763075,129.0168124,부산
show,6시 내고향,북경상회,restaurant,6시내고향 7652회 손만두 맛집,부산광역시 수영구 광안해변로277번길 44,35.1578294,129.1237967,부산
show,6시 내고향,운이네,restaurant,"6시내고향 7542회 수구레국, 돼지갈비찜, 선짓국 맛집",부산광역시 영도구 남항로49번길 13,35.0889872,129.0419154,부산
show,6시 내고향,구구숯불꼼장어활어회,restaurant,"6시내고향 7542회 곰장어소금구이, 곰장어양념구이 맛집",부산광역시 영도구 절영로43번길 72 남항시장,35.08929,129.0424402,부산
show,6시 내고향,일번지자갈치산곰장어,restaurant,6시내고향 7581회 곰장어구이 맛집,부산광역시 해운대구 구남로41번길 12,35.1609948,129.1620392,부산
show,6시 내고향,차차온족발,restaurant,6시내고향 7581회 냉채족발 맛집,부산광역시 해운대구 구남로41번길 17,35.1613071,129.1619953,부산
show,6시 내고향,우아한바다,restaurant,6시내고향 7581회 모둠해산물 맛집,부산광역시 해운대구 구남로41번길 19-1 1층,35.1614531,129.1620863,부산
show,6시 내고향,소문난 튀김 전,restaurant,"6시내고향 7581회 전, 식혜 맛집",부산광역시 해운대구 구남로41번길 29,35.1617841,129.1624379,부산
show,6시 내고향,착한수산 해운대꽃새우대게,restaurant,6시내고향 7581회 독도새우 맛집,부산광역시 해운대구 구남로41번길 36 1층,35.1618453,129.1628284,부산
show,6시 내고향,불오뎅 해운대시장점,restaurant,6시내고향 7581회 물떡 맛집,부산광역시 해운대구 중동1로 38,35.1622029,129.1631364,부산
show,6시 내고향,전주전집,restaurant,6시내고향 7561회 모둠전 맛집,서울특별시 강동구 풍성로58길 34,37.5274385,127.1351394,서울
show,6시 내고향,동대문곱창볶음전문,restaurant,6시내고향 7618회 곱창볶음 맛집,서울특별시 동작구 국사봉1길 31,37.4990502,126.9301849,서울
show,6시 내고향,촌놈떡갈비,restaurant,6시내고향 7618회 떡갈비 맛집,서울특별시 동작구 국사봉1길 45,37.4992347,126.930957,서울
show,6시 내고향,우곳간 보라매점,restaurant,6시내고향 7580회 한우 맛집,서울특별시 동작구 여의대방로24길 73 1층,37.4985203,126.9241248,서울
show,6시 내고향,신설집,restaurant,6시내고향 7617회 순댓국 맛집,세종특별자치시 부강면 부강4길 15 1층,36.529449,127.3680532,세종
show,6시 내고향,장터고래,restaurant,"6시내고향 7526회 고래수육, 고래육회 맛집",울산광역시 남구 봉월로102번길 17-2 1층,35.5421717,129.3080808,울산
show,6시 내고향,시장식육불고기,restaurant,6시내고향 7522회 석쇠불고기 맛집,울산광역시 울주군 언양읍 장터1길 22,35.5634831,129.1259342,울산
show,6시 내고향,언양수산횟집,restaurant,6시내고향 7522회 용가자미물회 맛집,울산광역시 울주군 언양읍 장터1길 22,35.5634831,129.1259342,울산
show,6시 내고향,언양 알프스시장곰탕,restaurant,6시내고향 7522회 소머리곰탕 맛집,울산광역시 울주군 언양읍 장터2길 12-1,35.5633237,129.1263986,울산
show,6시 내고향,혜경네,restaurant,6시내고향 7537회 밴댕이 맛집,인천광역시 강화군 강화읍 중앙로 17-9,37.7422908,126.4921831,인천
show,6시 내고향,동막호,restaurant,6시내고향 7634회 망둑어요리 맛집,인천광역시 강화군 화도면 해안남로 1429 2호,37.592079,126.4631373,인천
show,6시 내고향,대련호,restaurant,6시내고향 7513회 쭈꾸미 맛집,인천광역시 강화군 화도면 해안남로 1429 대련호,37.592079,126.4631373,인천
show,6시 내고향,그집민물매운탕,restaurant,6시내고향 7568회 어탕국수 맛집,인천광역시 계양구 드림로674번길 46,37.5771553,126.7142395,인천
show,6시 내고향,일번가,restaurant,6시내고향 7525회 갯가재한상 맛집,인천광역시 남동구 아암대로 1633 1층,37.3996808,126.7401542,인천
show,6시 내고향,시장짜장면,restaurant,"6시내고향 7532회 짜장면, 유부짬뽕 맛집",인천광역시 미추홀구 낙섬중로38번길 13-19 1층,37.4516747,126.6383219,인천
show,6시 내고향,명품돈가스,restaurant,6시내고향 7532회 돈가스 맛집,인천광역시 미추홀구 낙섬중로38번길 9 토지금고시장 1층상가,37.4513889,126.6377778,인천
show,6시 내고향,욕쟁이식당,restaurant,"6시내고향 7566회 백합칼국수, 해물파전 맛집",인천광역시 옹진군 북도면 장봉로 14 식당,37.5361549,126.3839432,인천
show,6시 내고향,은하호 비동,restaurant,"6시내고향 7556회 광어회 , 광어매운탕, 참소라찜 맛집",인천광역시 옹진군 영흥면 영흥로 109-7,37.2551229,126.4987281,인천
show,6시 내고향,도랫마을,restaurant,"6시내고향 7619회 전어, 낙지요리 맛집",인천광역시 중구 하나개로 142,37.3830388,126.4104581,인천
show,6시 내고향,강진만갯벌탕,restaurant,6시내고향 7636회 짱뚱어요리 맛집,전라남도 강진군 강진읍 동성로 16,34.6402932,126.7747449,전라
show,6시 내고향,설성식당,restaurant,6시내고향 7563회 돼지불고기 맛집,전라남도 강진군 병영면 병영성로 92,34.7128194,126.8169916,전라
show,6시 내고향,비스커피,restaurant,6시내고향 7622회 토란디저트 맛집,전라남도 곡성군 곡성읍 곡성로 809,35.2781224,127.292645,전라
show,6시 내고향,청솔가든,restaurant,"6시내고향 7608회 은어튀김, 참게탕 맛집",전라남도 곡성군 오곡면 대황강로 1560,35.18822,127.369361,전라
show,6시 내고향,쑥부쟁이 카페,cafe,6시내고향 7509회 쑥부쟁이머핀 맛집,전라남도 구례군 산동면 지리산온천로 72,35.3144149,127.4558677,전라
show,6시 내고향,용궁가든,restaurant,6시내고향 7554회 민물매운탕 맛집,전라남도 구례군 토지면 섬진강대로 4559,35.199213,127.5739769,전라
show,6시 내고향,홍어1번지,restaurant,6시내고향 7648회 홍어 맛집,전라남도 나주시 영산3길 2-1 영실미곡상회,34.9997025,126.7105033,전라
show,6시 내고향,주몽가든맛집,restaurant,6시내고향 7573회 삼계탕 맛집,전라남도 나주시 왕곡면 예향로 3683,34.9546948,126.7072877,전라
show,6시 내고향,유진수산,restaurant,6시내고향 7648회 반건조생선구이 맛집,전라남도 나주시 청동길 14,35.0370592,126.7237878,전라
show,6시 내고향,신청호식당,restaurant,6시내고향 7604회 전어음식 맛집,전라남도 목포시 석현로 28,34.8155049,126.4245029,전라
show,6시 내고향,해신수산,restaurant,6시내고향 7604회 갯장어샤부샤부 맛집,전라남도 목포시 석현로 28 청호시장,34.8155049,126.4245029,전라
show,6시 내고향,청자횟집,restaurant,6시내고향 7597회 민어요리 맛집,전라남도 목포시 수강로 13-2,34.7859233,126.3852043,전라
show,6시 내고향,무안낙지할매,restaurant,6시내고향 7512회 낙지 맛집,전라남도 무안군 무안읍 무안중앙로 7-11 1층,34.9884224,126.477404,전라
show,6시 내고향,행운다방,cafe,6시내고향 7525회 쌍화탕 맛집,전라남도 보성군 득량면 역전길 23-2,34.7618875,127.1699154,전라
show,6시 내고향,청광도예원,cafe,6시내고향 7525회 녹차정식 맛집,전라남도 보성군 보성읍 사동길 52-11,34.7249309,127.089279,전라
show,6시 내고향,참좋은신안횟집,restaurant,6시내고향 7603회 민어요리 맛집,전라남도 신안군 임자면 대광해수욕장길 172-41,35.1030235,126.073452,전라
show,6시 내고향,편안한횟집,restaurant,6시내고향 7559회 젓새우요리 맛집,전라남도 신안군 임자면 대광해수욕장길 178,35.1028855,126.0731603,전라
show,6시 내고향,전장포항구식당,restaurant,6시내고향 7535회 황석어요리 맛집,전라남도 신안군 임자면 전장포길 902,35.1206734,126.1254833,전라
show,6시 내고향,명창식당,restaurant,6시내고향 7588회 장어탕 맛집,전라남도 여수시 여객선터미널길 14-2,34.7390485,127.7320286,전라
show,6시 내고향,일미식당,restaurant,"6시내고향 7600회 청각물회 , 문어숙회 맛집",전라남도 완도군 금일읍 감목1길 3,34.3488379,127.0295695,전라
show,6시 내고향,정남진전망대횟집,restaurant,6시내고향 7627회 전어요리 맛집,전라남도 장흥군 관산읍 정남진해안로 212-57,34.5101553,126.9723467,전라
show,6시 내고향,바다하우스,restaurant,6시내고향 7509회 바지락초무침 맛집,전라남도 장흥군 안양면 수문용곡로 139,34.6326083,127.0312035,전라
show,6시 내고향,삭금 남촌횟집,restaurant,6시내고향 7515회 갑오징어 맛집,전라남도 장흥군 회진면 가학회진로 903,34.4481048,126.9277193,전라
show,6시 내고향,명성가든,restaurant,"6시내고향 7646회 닭회 , 닭주물럭, 닭백숙, 닭구이 맛집",전라남도 해남군 삼산면 고산로 549-7,34.5182103,126.60986,전라
show,6시 내고향,원조 해남고구마빵 피낭시에,cafe,6시내고향 7646회 고구마빵 맛집,전라남도 해남군 해남읍 읍내길 8,34.5708564,126.5988692,전라
show,6시 내고향,반갑다친구야,restaurant,6시내고향 7646회 삼치요리 맛집,전라남도 해남군 해남읍 천변2길 53,34.5719887,126.6023364,전라
show,6시 내고향,건강한밥상 참새미,restaurant,"6시내고향 7603회 가을자두, 추희 맛집",전라남도 화순군 한천면 한계1길 13,34.9760448,126.9970895,전라
show,6시 내고향,모꼬지바지락요리전문점,restaurant,"6시내고향 7519회 바지락솥밥, 바지락전, 바지락탕 맛집",전라북도 고창군 부안면 인촌로 60,35.5322042,126.597608,전라
show,6시 내고향,성송회관,restaurant,"6시내고향 7530회 새싹보리밥, 서대탕 맛집",전라북도 고창군 성송면 대성로 796,35.366265,126.6471963,전라
show,6시 내고향,해주가든,restaurant,"6시내고향 7524회 장어소금구이, 장어양념구이 맛집",전라북도 고창군 아산면 선운대로 2781,35.5077231,126.6056098,전라
show,6시 내고향,수송반점,restaurant,6시내고향 7514회 짬뽕 맛집,전라북도 군산시 동메3길 23 1층,35.971719,126.7131977,전라
show,6시 내고향,예향,restaurant,6시내고향 7510회 키조개 맛집,전라북도 군산시 비응동로 59,35.9396365,126.5335726,전라
show,6시 내고향,창신호,restaurant,6시내고향 7649회 꽃게 맛집,전라북도 군산시 옥도면 어청도길 61-1,36.1178794,125.9818748,전라
show,6시 내고향,부자수산,restaurant,6시내고향 7512회 간장게장 맛집,전라북도 김제시 성산길 117,35.801503,126.8823666,전라
show,6시 내고향,미유스시,restaurant,6시내고향 7512회 롤초밥 맛집,전라북도 김제시 성산길 138 1층,35.8008115,126.8833101,전라
show,6시 내고향,달나라방앗간,cafe,"6시내고향 7512회 콜드브루, 돼지떡바 맛집",전라북도 김제시 성산길 138 1층 107호,35.8008115,126.8833101,전라
show,6시 내고향,개미궁,restaurant,6시내고향 7548회 풀치조림 맛집,전라북도 부안군 진서면 곰소8길 34,35.5889518,126.6132708,전라
show,6시 내고향,자매식당,restaurant,6시내고향 7553회 젓갈백반 맛집,전라북도 부안군 진서면 곰소항길 75-1,35.5870544,126.6082915,전라
show,6시 내고향,취향회관,restaurant,6시내고향 7640회 돼지불고기 맛집,전라북도 전주시 덕진구 덕진연못3길 7,35.8466987,127.1205257,전라
show,6시 내고향,또와분식,cafe,6시내고향 7517회 찹쌀도넛 맛집,전라북도 전주시 완산구 태평5길 41-2,35.8245512,127.1432749,전라
show,6시 내고향,옥돌생고기,restaurant,6시내고향 7559회 쌍화탕수육삼합귀리떡갈비 맛집,전라북도 정읍시 명륜길 15-7,35.5698517,126.8501503,전라
show,6시 내고향,홍연농가맛집,restaurant,"6시내고향 7599회 인삼튀김, 홍삼조림수육, 홍삼전병쌈, 수삼샐러드 맛집",전라북도 진안군 진안읍 상평1길 8-1,35.7717948,127.37005,전라
show,6시 내고향,수망다원,cafe,"6시내고향 7531회 말차쿠키, 말차라테 맛집",제주특별자치도 서귀포시 남원읍 수망리 535-5,33.3368233,126.7182859,제주
show,6시 내고향,보목어촌계식당,restaurant,6시내고향 7520회 자리돔 맛집,제주특별자치도 서귀포시 보목포로 46,33.2392661,126.6068963,제주
show,6시 내고향,팔도식당갈치조림 섭지코지점,restaurant,6시내고향 7584회 갈치요리 맛집,제주특별자치도 서귀포시 성산읍 섭지코지로26번길 15,33.4376601,126.919929,제주
show,6시 내고향,해녀의집,restaurant,"6시내고향 7617회 소라찜, 조개죽, 성게회 , 오분자기찜 맛집",제주특별자치도 서귀포시 성산읍 시흥하동로 114,33.4779945,126.908275,제주
show,6시 내고향,청양분식,restaurant,6시내고향 7521회 잔치국수 맛집,충청남도 공주시 산성동 186-118,36.4576783,127.1238148,충청
show,6시 내고향,공주궁중떡,restaurant,6시내고향 7608회 오색송편 맛집,충청남도 공주시 산성시장3길 16,36.4568633,127.1241364,충청
show,6시 내고향,산성전집,restaurant,6시내고향 7609회 전 맛집,충청남도 공주시 산성시장3길 99-1,36.4583894,127.1238191,충청
show,6시 내고향,영진식당,restaurant,6시내고향 7521회 알밤한우 맛집,충청남도 공주시 용당길 12-1 백두산 약국 2층,36.4588942,127.1236249,충청
show,6시 내고향,곰두레,cafe,"6시내고향 7632회 공주밤빵, 마롱글라세 맛집",충청남도 공주시 의당면 연수원길 170-5,36.4953759,127.1503538,충청
show,6시 내고향,공주 까치집,restaurant,6시내고향 7632회 멸치국수 맛집,충청남도 공주시 흑수골길 62,36.4727017,127.1432021,충청
show,6시 내고향,황산옥,restaurant,"6시내고향 7633회 복탕, 복찜 맛집",충청남도 논산시 강경읍 금백로 34,36.156397,127.0092698,충청
show,6시 내고향,새우김밥,restaurant,6시내고향 7633회 통새우김밥 맛집,충청남도 논산시 강경읍 대흥로 32-1,36.1566289,127.0133421,충청
show,6시 내고향,연산시장도토리묵,restaurant,6시내고향 7534회 도토리묵 맛집,충청남도 논산시 연산면 연산4길 10-5,36.2159653,127.2159738,충청
show,6시 내고향,오천항수산물판매센터 7호점,restaurant,6시내고향 7514회 키조개코스요리 맛집,충청남도 보령시 오천면 오천해안로 782-7,36.4393372,126.5209232,충청
show,6시 내고향,지영이네횟집,restaurant,6시내고향 7509회 주꾸미요리 맛집,충청남도 보령시 웅천읍 열린바다1길 47,36.241747,126.5342848,충청
show,6시 내고향,산해별미,restaurant,6시내고향 7584회 우럭젓국 맛집,충청남도 서산시 대사동5로 10,36.7843732,126.4580534,충청
show,6시 내고향,맛있게먹는날 본점,restaurant,"6시내고향 7565회 연포탕, 낙지볶음 맛집",충청남도 서산시 시장2로 13,36.7832286,126.4563668,충청
show,6시 내고향,복순이네,restaurant,6시내고향 7565회 붕장어탕 맛집,충청남도 서산시 시장3길 6-5,36.7823989,126.4553428,충청
show,6시 내고향,영광횟집,restaurant,6시내고향 7622회 꽃게 맛집,충청남도 서천군 서면 홍원길 105 영광횟집,36.1565945,126.4996727,충청
show,6시 내고향,동해야횟집,restaurant,6시내고향 7511회 주꾸미요리 맛집,충청남도 서천군 서천읍 충절로 42,36.0750035,126.6870115,충청
show,6시 내고향,보신정,restaurant,6시내고향 7553회 콩국수 맛집,충청남도 서천군 장항읍 장마로 14-1,36.009706,126.6901818,충청
show,6시 내고향,서해횟집,restaurant,6시내고향 7520회 꽃게 맛집,충청남도 서천군 장항읍 장산로 618,36.0005968,126.7259626,충청
show,6시 내고향,호반식당,restaurant,6시내고향 7638회 붕어요리 맛집,충청남도 예산군 대흥면 예당로 848,36.6050411,126.7934315,충청
show,6시 내고향,60년전통예산장터국밥,restaurant,"6시내고향 7638회 소머리수육, 소머리국밥 맛집",충청남도 예산군 예산읍 관양산길 12-1,36.6760954,126.8484762,충청
show,6시 내고향,예산1호국밥집,restaurant,6시내고향 7638회 국밥 맛집,충청남도 예산군 예산읍 관양산길 12-1,36.6760954,126.8484762,충청
show,6시 내고향,가보자횟집,restaurant,6시내고향 7574회 노래미요리 맛집,충청남도 태안군 근흥면 용도로 261,36.6949707,126.2268195,충청
show,6시 내고향,바다수산물,restaurant,6시내고향 7541회 꽃게탕 맛집,충청남도 태안군 안면읍 장터로 104,36.5164494,126.3461012,충청
show,6시 내고향,효안네,restaurant,6시내고향 7541회 타이거새우튀김 맛집,충청남도 태안군 안면읍 장터로 104 32호,36.5164494,126.3461012,충청
show,6시 내고향,서울식당,restaurant,6시내고향 7544회 올갱이해장국 맛집,충청북도 괴산군 괴산읍 읍내로 283-1,36.8086679,127.793984,충청
show,6시 내고향,새재황토방,restaurant,6시내고향 7602회 닭백숙 맛집,충청북도 괴산군 연풍면 새재로 1833,36.8137972,128.0395672,충청
show,6시 내고향,나루터민물식당,restaurant,6시내고향 7559회 쏘가리요리 맛집,충청북도 단양군 가곡면 가대1길 31,37.0411966,128.4083225,충청
show,6시 내고향,구경당,cafe,6시내고향 7542회 사과빵 맛집,충청북도 단양군 단양읍 도전5길 28,36.982082,128.3701206,충청
show,6시 내고향,단양토종마늘순대,restaurant,6시내고향 7542회 마늘순대/곱창전골 맛집,충청북도 단양군 단양읍 도전6길 29,36.9820589,128.3702811,충청
show,6시 내고향,월류원와인카페,restaurant,6시내고향 7615회 와인 맛집,충청북도 영동군 황간면 황간동로 194,36.2477724,127.9152933,충청
show,6시 내고향,선광집,restaurant,"6시내고향 7641회 생선국수, 도리뱅뱅이 맛집",충청북도 옥천군 청산면 지전1길 26,36.3460334,127.7924754,충청
show,6시 내고향,소뜰애,restaurant,"6시내고향 7612회 등심, 갈빗살 맛집",충청북도 제천시 금성면 청풍호로 1030,37.0577823,128.1840241,충청
show,6시 내고향,오가네민물매운탕,restaurant,"6시내고향 7518회 민물고기매운탕, 도리뱅뱅이 맛집",충청북도 제천시 봉양읍 북부로6길 47,37.1323576,128.098227,충청
show,6시 내고향,고향원조감자탕,restaurant,6시내고향 7635회 감자탕 맛집,충청북도 제천시 칠성로9길 9,37.1444955,128.2118335,충청
show,6시 내고향,할머니집,restaurant,6시내고향 7529회 오리주물럭 맛집,충청북도 진천군 이월면 화산동길 18 할머니집식당,36.9415909,127.4100007,충청
show,6시 내고향,사또가든,restaurant,6시내고향 7514회 붕어요리 맛집,충청북도 진천군 초평면 금오길 55,36.8093206,127.5107237,충청
show,6시 내고향,금성닭집,restaurant,6시내고향 7619회 생닭 맛집,충청북도 청주시 청원구 향군로41번길 15-1,36.6489049,127.4857104,충청
show,6시 내고향,오누이순대,restaurant,6시내고향 KBS1회 순댓국 맛집,충청북도 청주시 청원구 향군로41번길 8,36.6492755,127.4857482,충청
show,6시 내고향,도깨비수제도너츠,cafe,"6시내고향 7590회 도넛, 꽈배기 맛집",충청북도 충주시 공설시장길 19,36.9745234,127.928718,충청
show,6시 내고향,악어섬,restaurant,"6시내고향 7540회 사과메밀국수, 산채비빔밥 맛집",충청북도 충주시 살미면 월악로 411,36.903203,128.0131267,충청
show,6시 내고향,능이이야기,restaurant,6시내고향 7590회 능이오리백숙 맛집,충청북도 충주시 충인4길 20,36.9740842,127.9327753,충청
show,6시 내고향,명동김치만두,restaurant,6시내고향 7590회 만두 맛집,충청북도 충주시 충인6길 2,36.9741119,127.9292362,충청
show,6시 내고향,병산감자옹심이,restaurant,6시내고향 7662회 감자옹심이,강원도 강릉시 병산동 372-3,37.763157,128.940354,강원
show,6시 내고향,멍게가,restaurant,6시내고향 멍게,경상남도 통영시 동충4길 25 멍게가,34.8413645,128.4227695,경상
show,6시 내고향,묵호문어집,restaurant,6시내고향 7531회 문어,경상북도 영주시 영주로224번길 8,36.825469,128.623837,경상
show,6시 내고향,신승반점,restaurant,6시내고향 5776회 짜장면,인천광역시 중구 차이나타운로44번길 31-3,37.475425,126.617798,인천
show,6시 내고향,인천당,cafe,"6시내고향 7488회,6963회  생과자 맛집",인천광역시 중구 참외전로 138,37.4767063,126.6280998,인천
show,6시 내고향,연다라전통순대,restaurant,6시내고향 7196회 순대,전라북도 순창군 순창읍 남계로 52,35.3712345,127.145527,전라
show,6시 내고향,갯마을횟집식당,restaurant,6시내고향 7246회 실치한상,충청남도 당진시 석문면 석문해안로 208,37.034055,126.544958,충청
show,6시 내고향,가연,restaurant,6시내고향 7015회 마늘육회/마늘떡갈비,충청북도 단양군 단양읍 삼봉로 87,36.979156,128.353297,충청
show,공감특별한세상,영미오리탕,restaurant,공감특별한세상 384회 오리탕,광주광역시 북구 경양로 126,35.161388,126.905557,광주
show,공감특별한세상,에베레스트 레스토랑 동대문점,restaurant,공감특별한세상 399회 네팔음식,서울특별시 종로구 종로51가길 2-1,37.572535,127.012485,서울
show,굿모닝대한민국,팔당닭발,restaurant,굿모닝대한민국 894회 닭발 맛집,서울특별시 강남구 학동로45길 7,37.51672,127.0378039,서울
show,굿모닝대한민국,61호 명태전,restaurant,굿모닝대한민국 601회 명태전,전라남도 순천시 장평로 60,34.9450368,127.4954114,전라
show,굿모닝대한민국,하림각,restaurant,굿모닝대한민국 454회 게살연두부찜/해물누룽지탕,서울특별시 종로구 자하문로 255,37.5972027,126.962067,서울
show,기분좋은 날,청보횟집,restaurant,기분좋은날 2572회 물회 맛집,강원도 고성군 죽왕면 공현진해변길 95-3,38.356026,128.5099843,강원
show,기분좋은 날,수산물회,restaurant,"기분좋은날 2575회  물회, 오징어순대 맛집",강원도 속초시 엑스포로1길 12,38.1906785,128.5878918,강원
show,기분좋은 날,이선장,restaurant,"기분좋은날 2575회 대게찜, 문어찜 맛집",강원도 속초시 영금정로 24-1,38.2123942,128.5990457,강원
show,기분좋은 날,실로암메밀국수,restaurant,기분좋은날 1649회 메밀국수 맛집,강원도 양양군 강현면 장산4길 8-5,38.1371634,128.5900767,강원
show,기분좋은 날,동박골식당,restaurant,기분좋은날 2055회 곤드레제육정식 맛집,강원도 정선군 정선읍 정선로 1314,37.3788603,128.6599417,강원
show,기분좋은 날,제일식당,restaurant,기분좋은날 1834회  더덕구이정식 맛집,강원도 횡성군 횡성읍 읍상서로5번길 36,37.4895646,127.986793,강원
show,기분좋은 날,일미정,restaurant,기분좋은날 2712회 장어 맛집,경기도 고양시 덕양구 행주산성로 168,37.6008805,126.814651,경기
show,기분좋은 날,수와연,restaurant,기분좋은날 1735회 약선요리한상 맛집,경기도 광주시 남종면 산수로 1680,37.4988179,127.3025524,경기
show,기분좋은 날,원조항아리 동치미국수,restaurant,기분좋은날 1588회 동치미국수 맛집,경기도 광주시 퇴촌면 정영로 408,37.4704609,127.3342062,경기
show,기분좋은 날,조마루감자탕 본점,restaurant,기분좋은날 1775회 감자탕 맛집,경기도 부천시 조마루로 381,37.4980723,126.7863183,경기
show,기분좋은 날,카페랄로,cafe,"기분좋은날 1306회 커피, 파스타 맛집",경기도 성남시 분당구 하오개로 246,37.3937723,127.0475599,경기
show,기분좋은 날,페삭,restaurant,기분좋은날 2115회 철판코스요리 맛집,경기도 성남시 분당구 황새울로214번길 8 MS프라자 3 층 ( 마세라티 분당 전시장 건물 ),37.3781018,127.1122975,경기
show,기분좋은 날,달구가,restaurant,기분좋은날 2077회 마늘통닭 맛집,경기도 안산시 단원구 광덕2로 194-4 골드타운,37.3092025,126.8311577,경기
show,기분좋은 날,청심정,restaurant,기분좋은날 1656회  복분자장어구이 맛집,경기도 여주시 강변로 60,37.2999588,127.6325903,경기
show,기분좋은 날,황토꿀벌농장,store,기분좋은날 1730회 벌이만든 명약 봉침 맛집,경기도 파주시 적성면 청송로 875-13,37.9490486,126.904655,경기
show,기분좋은 날,밥보다국시,restaurant,기분좋은날 2355회 콩국수 맛집,경기도 평택시 현덕면 서해로 506,36.9459753,126.9137194,경기
show,기분좋은 날,우목정,restaurant,기분좋은날 2623회 이동갈비 맛집,경기도 포천시 이동면 화동로 1974,38.0241895,127.3689547,경기
show,기분좋은 날,포천한우명가,restaurant,기분좋은날 1424회 소고기 맛집,경기도 포천시 호국로 959,37.8508625,127.1633291,경기
show,기분좋은 날,동의약선관,restaurant,기분좋은날 1898회 약선 정식 맛집,경상남도 산청군 금서면 동의보감로555번길 150,35.4415106,127.830952,경상
show,기분좋은 날,파리바게뜨 경남함안점,cafe,기분좋은날 1319회 빵 맛집,경상남도 함안군 가야읍 함안대로 566,35.2769486,128.4050487,경상
show,기분좋은 날,산마을식당,restaurant,기분좋은날 2301회 두메부추 맛집,경상북도 울릉군 북면 나리 136-2,37.5249057,130.8675481,경상
show,기분좋은 날,왕비천이게대게왕비천점,restaurant,기분좋은날 2266회 게짜박이/대게만두 맛집,경상북도 울진군 근남면 불영계곡로 3630,36.9670343,129.3918637,경상
show,기분좋은 날,대구회식당,restaurant,기분좋은날 2266회 꼼치 맛집,경상북도 울진군 죽변면 죽변중앙로 180 죽변수산물시장,37.0588272,129.4237954,경상
show,기분좋은 날,월용회식당,restaurant,기분좋은날 2266회 대게찜 맛집,경상북도 울진군 죽변면 죽변중앙로 180 죽변수산물시장,37.0588272,129.4237954,경상
show,기분좋은 날,죽변우성식당,restaurant,기분좋은날 2266회 꼼치 맛집,경상북도 울진군 죽변면 죽변항길 69,37.0583927,129.4215589,경상
show,기분좋은 날,박미옥회대게식당,restaurant,기분좋은날 2266회 대게찜 맛집,경상북도 울진군 후포면 후포로 196-4,36.6817259,129.4602854,경상
show,기분좋은 날,신동양식당,restaurant,기분좋은날 1898회 닭요리 맛집,경상북도 청송군 청송읍 중앙로 526,36.4396273,129.0821631,경상
show,기분좋은 날,향방,restaurant,기분좋은날 2120회 짜장 맛집,서울특별시 강남구 강남대로150길 10 2층,37.5157405,127.0206925,서울
show,기분좋은 날,대보명가,restaurant,기분좋은날 1735회 약초쟁반 맛집,서울특별시 강북구 4.19로 69,37.6396099,127.0256575,서울
show,기분좋은 날,이천성모메존칼국수,restaurant,기분좋은날 1807회 짬뽕수제비 맛집,서울특별시 구로구 경인로 18,37.4890201,126.8248655,서울
show,기분좋은 날,마실,restaurant,기분좋은날 2577회 물회 맛집,서울특별시 동작구 사당로 215 서림빌딩 1층,37.4843751,126.9723299,서울
show,기분좋은 날,웃사브,restaurant,기분좋은날 2586회 인도카레 맛집,"서울특별시 마포구 와우산로11길 10 1,2층",37.5489986,126.9223815,서울
show,기분좋은 날,목란,restaurant,기분좋은날 2228회 동파육 맛집,서울특별시 서대문구 연희로15길 21,37.5683426,126.9304738,서울
show,기분좋은 날,동해해물탕,restaurant,기분좋은날 1964회 해물탕 맛집,서울특별시 영등포구 당산로32길 13 지성빌딩,37.5263074,126.8984091,서울
show,기분좋은 날,카레오,restaurant,기분좋은날 2586회 일본카레 맛집,서울특별시 영등포구 여의동로3길 10 1층 102-1호,37.5181371,126.9261297,서울
show,기분좋은 날,태양포차,restaurant,기분좋은날 1887회 해물떡볶이 맛집,서울특별시 영등포구 영중로 124,37.5273031,126.905979,서울
show,기분좋은 날,페르시안궁전,restaurant,기분좋은날 2120회 카레 맛집,서울특별시 종로구 성균관로6길 9,37.5848695,126.9975336,서울
show,기분좋은 날,최대감네,restaurant,기분좋은날 1934회 샤브샤브 맛집,서울특별시 종로구 인사동8길 12-3,37.5740197,126.9860946,서울
show,기분좋은 날,놋그릇 가지런히,restaurant,기분좋은날 1726회 전통디저트 맛집,서울특별시 종로구 자하문로13길 3,37.5799281,126.9709206,서울
show,기분좋은 날,할아버지칼국수,restaurant,기분좋은날 2503회 칼국수 맛집,서울특별시 중구 마장로9길 43-3,37.5699687,127.019049,서울
show,기분좋은 날,복생원,restaurant,기분좋은날 2003회 짜장면 맛집,인천광역시 남동구 예술로370번길 47,37.4668795,126.7059162,인천
show,기분좋은 날,연안부두 목포신안18호횟집,restaurant,기분좋은날 2623회 회 맛집,인천광역시 중구 연안부두로 119,37.4493349,126.5978068,인천
show,기분좋은 날,금탑회관,restaurant,기분좋은날 1722회 소고기 맛집,전라남도 고흥군 고흥읍 학교길 47,34.6076676,127.2903706,전라
show,기분좋은 날,신식당,restaurant,기분좋은날 1868회 떡갈비 맛집,전라남도 담양군 담양읍 중앙로 95,35.3217233,126.9820349,전라
show,기분좋은 날,강변장어,restaurant,기분좋은날 1722회 장어정식 맛집,전라남도 순천시 순천만길 436,34.8925937,127.5089489,전라
show,기분좋은 날,순천 한정식 명궁관,restaurant,기분좋은날 1722회 한정식 맛집,전라남도 순천시 중앙2길 7,34.9497715,127.4862295,전라
show,기분좋은 날,달스윗,restaurant,기분좋은날 3347회 해초라떼 맛집,전라남도 완도군 완도읍 군내길 3,34.3126336,126.7563998,전라
show,기분좋은 날,천년학관광횟집식당,restaurant,기분좋은날 1823회 감태 맛집,전라남도 장흥군 회진면 회진중앙길 10-1,34.4819319,126.9393575,전라
show,기분좋은 날,문정희할머니고추장,restaurant,기분좋은날 1850회 쌈장 맛집,전라북도 순창군 순창읍 민속마을길 22-8,35.3678719,127.1090171,전라
show,기분좋은 날,제스토리,restaurant,기분좋은날 2270회 제주소품샵 맛집,제주특별자치도 서귀포시 막숙포로 60,33.2361183,126.5149992,제주
show,기분좋은 날,막내해녀,restaurant,기분좋은날 2311회 해산물 맛집,제주특별자치도 서귀포시 성산읍 환해장성로 183,33.4121987,126.9047711,제주
show,기분좋은 날,신산리마을카페,cafe,기분좋은날 2311회 녹차 맛집,제주특별자치도 서귀포시 성산읍 환해장성로 33,33.4121987,126.9047711,제주
show,기분좋은 날,동경식육점,restaurant,기분좋은날 2270회 흑돼지족발 맛집,제주특별자치도 제주시 관덕로14길 10,33.512247,126.5262491,제주
show,기분좋은 날,김녕해녀촌,restaurant,"기분좋은날 2270회 생선회, 문어 맛집",제주특별자치도 제주시 구좌읍 김녕로21길 11,33.5570485,126.7554129,제주
show,기분좋은 날,월척회센터,restaurant,"기분좋은날 2270회 방어회, 해산물모듬 맛집",제주특별자치도 제주시 동문로 16,33.5127431,126.5283168,제주
show,기분좋은 날,한일식당,restaurant,"기분좋은날 2311회 고기국수, 순대국밥 맛집",제주특별자치도 제주시 동문로 6-4 15,33.5125631,126.5272059,제주
show,기분좋은 날,오복떡집,restaurant,기분좋은날 2311회 오메기떡 맛집,제주특별자치도 제주시 동문로2길 10,33.5123296,126.526713,제주
show,기분좋은 날,니모메빈티지라운지,cafe,"기분좋은날 2575회  블루베리케이크, 커피 맛집",제주특별자치도 제주시 일주서로 7335-8,33.4937504,126.4300165,제주
show,기분좋은 날,늘봄흑돼지,restaurant,기분좋은날 1416회 흑돼지 맛집,제주특별자치도 제주시 한라대학로 12,33.4792895,126.4728779,제주
show,기분좋은 날,마늘각시 서해점,restaurant,기분좋은날 2750회 마늘요리 맛집,충청남도 서산시 충의로 19,36.7734234,126.4399085,충청
show,기분좋은 날,한일식당,restaurant,기분좋은날 1868회 소머리국밥 맛집,충청남도 예산군 삽교읍 삽교역로 58,36.6847623,126.7492159,충청
show,기분좋은 날,성원마늘약선요리,restaurant,기분좋은날 2546회 마늘요리 맛집,충청북도 단양군 단양읍 삼봉로 59,36.9808728,128.350914,충청
show,나혼자산다,장흥 참숯가마,playground,기안84가 여름 힐링장소로 택한 장소,경기도 양주시 장흥면 권율로 400,37.744598,126.959828,경기
show,나혼자산다,교촌마을,playground,전통 한옥이 많이 남아 있는 마을,경상북도 경주시 교촌길 39-2,35.829625,129.217201,경상
show,나혼자산다,경주월드,playground,현무 학당편에서 같이 놀이기구를 탄 장소,경상북도 경주시 보문로 544,35.835594,129.282884,경상
show,나혼자산다,추억의달동네,playground,옛날 생활하는 모습을 표현한 현무학당편 촬영 장소,경상북도 경주시 보불로 216-8,35.803675,129.312426,경상
show,나혼자산다,문무대왕릉,playground,여름 현무 학당편에서 다 같이 일출을 본 장소,경상북도 경주시 양북면 봉길리 30-1,35.738125,129.486838,경상
show,나혼자산다,첨성대,playground,여름현무학당에서 방문한 유적지,경상북도 경주시 첨성로 140-25,35.83469,129.219066,경상
show,나혼자산다,돝고기506,restaurant,나혼자산다 224회 삼겹살,서울특별시 강남구 역삼로17길 53,37.498188,127.036223,서울
show,나혼자산다,대한곱창 장안점,restaurant,장안의 화제를 일으킨 화사 곱창집,서울특별시 동대문구 천호대로85길 21 동원빌딩 1층,37.562946,127.0662747,서울
show,나혼자산다,카페 개뿔,cafe,분위기 있는 나혼자산다 충재카페,서울특별시 종로구 낙산성곽서1길 26,37.578147,127.008066,서울
show,나혼자산다,동대문 종합시장,store,한혜연과 화사가 방문한 상가,서울특별시 종로구 종로 272 동대문종합시장 신관,37.570343,127.007765,서울
show,나혼자산다,한스델리 전주점,restaurant,화사와 휘인이 고향 방문하며 저녁을 먹은 식당,전라북도 전주시 완산구 전주객사5길 43-18,35.820075,127.144693,전라
show,놀라운 토요일,동일식당,restaurant,놀라운토요일 170회 곰치국 맛집,강원도 양양군 양양읍 남문3길 11-9,38.07577,128.624043,강원
show,놀라운 토요일,라스토리아,restaurant,놀라운토요일 170회 능이버섯크림리소토 맛집,강원도 양양군 양양읍 남문6길 4 2층,38.0756711,128.62207,강원
show,놀라운 토요일,원조숯불닭불고기집,restaurant,놀라운토요일 144회 숯불닭갈비 맛집,강원도 춘천시 낙원길 28-4,37.8787394,127.7252899,강원
show,놀라운 토요일,일산식당,restaurant,놀라운토요일 144회 뭉텅찌개 맛집,강원도 춘천시 서부대성로44번길 9,37.8824565,127.727794,강원
show,놀라운 토요일,최가네왕족발,restaurant,"놀라운토요일 160회 족발, 고추잡채 맛집",강원도 춘천시 춘천로 282,37.8803347,127.744425,강원
show,놀라운 토요일,블랑제리331,cafe,놀라운토요일 160회 페이스트리소시지빵 맛집,강원도 춘천시 춘천로255번길 2 1층,37.8795762,127.741826,강원
show,놀라운 토요일,부안막국수,restaurant,"놀라운토요일 160회 막국수, 총떡 맛집",강원도 춘천시 후석로344번길 8,37.881626,127.749633,강원
show,놀라운 토요일,태백한우직판장 창죽테마영농조합법인,restaurant,놀라운토요일 130회 태백한우 맛집,강원도 태백시 서황지로 68,37.1759503,128.98528,강원
show,놀라운 토요일,태백닭갈비,restaurant,놀라운토요일 130회 태백닭갈비 맛집,강원도 태백시 중앙남1길 10,37.1713827,128.990655,강원
show,놀라운 토요일,정가네메밀막국수,restaurant,"놀라운토요일 218회 순메밀국수, 수육 맛집",강원도 평창군 진부면 석두로 13,37.6361274,128.55497,강원
show,놀라운 토요일,전원감자탕,restaurant,놀라운토요일 218회 통마늘뼈찜 맛집,강원도 평창군 진부면 진부중앙로 51,37.6363283,128.5575,강원
show,놀라운 토요일,카페덤,cafe,놀라운토요일 218회 크로플 맛집,강원도 평창군 진부면 청송로 61,37.6367088,128.553237,강원
show,놀라운 토요일,메리엘,cafe,놀라운토요일 165회 샌드위치 맛집,강원도 횡성군 횡성읍 앞들서로 1,37.4876277,127.984799,강원
show,놀라운 토요일,이웃사촌,restaurant,놀라운토요일 165회 더덕취나물밥 맛집,강원도 횡성군 횡성읍 읍상서로 3-1,37.4893889,127.987524,강원
show,놀라운 토요일,대흥정육식당,restaurant,놀라운토요일 165회 한우모둠구이 맛집,강원도 횡성군 횡성읍 읍상서로5번길 15,37.4895811,127.987165,강원
show,놀라운 토요일,양수리연핫도그,cafe,놀라운토요일 188회 수제연잎핫도그 맛집,경기도 가평군 청평면 경춘로 552,37.7199033,127.40345,경기
show,놀라운 토요일,명인이상용제빵소,cafe,놀라운토요일 210회 메이플크림치즈빵 맛집,경기도 고양시 덕양구 지도로 35,37.6203939,126.824306,경기
show,놀라운 토요일,능곡할머니북어탕,restaurant,놀라운토요일 210회 북어탕맛집,경기도 고양시 덕양구 토당로 66-15,37.6215923,126.8189779,경기
show,놀라운 토요일,토당동 정식당,restaurant,놀라운토요일 210회 오징어볶음 맛집,경기도 고양시 덕양구 토당로32번길 42,37.6203298,126.823615,경기
show,놀라운 토요일,청솔가든,restaurant,놀라운토요일 171회 해신탕 맛집,경기도 고양시 덕양구 행주산성로 30,37.6034528,126.822591,경기
show,놀라운 토요일,우리곱창,restaurant,놀라운토요일 227회 한우곱창 맛집,경기도 광주시 경안로25번길 10-3,37.4090473,127.257016,경기
show,놀라운 토요일,챔프다이너,restaurant,놀라운토요일 227회 해시브라운버거 맛집,경기도 광주시 광주대로55번길 8 2층,37.4116821,127.259385,경기
show,놀라운 토요일,아가일 커피 클럽,cafe,놀라운토요일 227회 바노피파이 맛집,경기도 광주시 중앙로129번길 11 1층,37.4110038,127.256401,경기
show,놀라운 토요일,골뱅이 진족발,restaurant,놀라운토요일 233회 골뱅이 맛집,경기도 군포시 군포로735번길 15-3,37.3704663,126.942779,경기
show,놀라운 토요일,우브 베이커리,cafe,놀라운토요일 233회 콘치즈퀸아망 맛집,경기도 군포시 산본천로 203 1층,37.3708253,126.939979,경기
show,놀라운 토요일,릴라웨이,restaurant,놀라운토요일 233회 참나물파스타 맛집,경기도 군포시 산본천로202번길 18 1층,37.3697264,126.940601,경기
show,놀라운 토요일,부천아귀,restaurant,놀라운토요일 211회 백아귀찜 맛집,경기도 부천시 계남로301번길 6 1층,37.5038603,126.781662,경기
show,놀라운 토요일,오룸커피,cafe,놀라운토요일 211회 옥수수스무디 맛집,경기도 부천시 부천로 228,37.5043841,126.787259,경기
show,놀라운 토요일,짱아숯불닭바베큐,restaurant,놀라운토요일 211회 숯불닭바베큐 맛집,경기도 부천시 옥산로 150,37.5070116,126.780465,경기
show,놀라운 토요일,상동회센타,restaurant,놀라운토요일 182회 꽃게탕 맛집,경기도 부천시 장말로200번길 53,37.4904996,126.763655,경기
show,놀라운 토요일,세가지,restaurant,놀라운토요일 226회 치즈페퍼로니쿠키 맛집,경기도 성남시 중원구 둔촌대로64번길 4-4 1층,37.4292968,127.125776,경기
show,놀라운 토요일,토부덮밥,restaurant,놀라운토요일 226회 소고기튀김덮밥 맛집,경기도 성남시 중원구 성남대로 1132 1층 118호,37.4310224,127.129813,경기
show,놀라운 토요일,등갈비달인 모란 본점,restaurant,놀라운토요일 226회 김치치즈등갈비 맛집,경기도 성남시 중원구 제일로35번길 52 1층,37.432453,127.131623,경기
show,놀라운 토요일,초암골,restaurant,놀라운토요일 221회 산양산삼삼계탕 맛집,경기도 수원시 권선구 권선로713번길 20,37.2594165,127.029993,경기
show,놀라운 토요일,황해면옥 수원점,restaurant,놀라운토요일 221회 평양냉면 맛집,경기도 수원시 권선구 세지로112번길 56,37.2608148,127.022272,경기
show,놀라운 토요일,도톰카페,cafe,놀라운토요일 209회 젤라또 음료 맛집,경기도 수원시 영통구 중부대로256번길 48 1층(매탄동),37.2726127,127.0427493,경기
show,놀라운 토요일,일호선,restaurant,"놀라운토요일 209회 얼큰수제비찌개, 삼겹말이 맛집",경기도 수원시 영통구 중부대로271번길 19-6 1층,37.2754323,127.045311,경기
show,놀라운 토요일,팔호선,restaurant,놀라운토요일 209회 트러플뇨끼 맛집,경기도 수원시 영통구 중부대로271번길 19-6 2층,37.2754323,127.045311,경기
show,놀라운 토요일,장비빔국수와 굴국밥 보쌈 수원본점,restaurant,"놀라운토요일 155회 보쌈, 국수 맛집",경기도 수원시 장안구 수원천로 439,37.2917114,127.021107,경기
show,놀라운 토요일,오적어,restaurant,놀라운토요일 155회 오마이오징어한상 맛집,경기도 수원시 장안구 연무로42번길 30-1,37.2961612,127.027842,경기
show,놀라운 토요일,대포햇도그 연무점,restaurant,놀라운토요일 155회 튀김소떡소떡 맛집,경기도 수원시 장안구 월드컵로428번길 30-2,37.2946748,127.026555,경기
show,놀라운 토요일,브리지선데이,cafe,놀라운토요일 184회 라즈베리초코컵케이크 맛집,경기도 수원시 팔달구 덕영대로803번길 67 b1,37.2772154,126.998552,경기
show,놀라운 토요일,원조뚱이네부대찌개,restaurant,놀라운토요일 184회 부대찌개 맛집,경기도 수원시 팔달구 동말로 40,37.2783417,126.998575,경기
show,놀라운 토요일,닭계집,restaurant,놀라운토요일 184회 왕갈비치킨 맛집,경기도 수원시 팔달구 동말로78번길 18-11,37.2777741,127.001913,경기
show,놀라운 토요일,이가네생칼국수,restaurant,놀라운토요일 229회 닭한마리칼국수 맛집,경기도 시흥시 신천3길 9,37.4394471,126.7848883,경기
show,놀라운 토요일,눈꽃갈비,restaurant,놀라운토요일 229회 소갈비 맛집,경기도 시흥시 호현로22번길 19,37.4410778,126.786264,경기
show,놀라운 토요일,세컨드코너,restaurant,놀라운토요일 180회 옛날수제버거 맛집,경기도 안성시 시장길 37 b동 13호 세컨드코너,37.0066568,127.270537,경기
show,놀라운 토요일,커스터마이즈,cafe,놀라운토요일 180회 레몬소르베에이드 맛집,경기도 안성시 안성맞춤대로 1078 1층,37.0095046,127.270334,경기
show,놀라운 토요일,안일옥 본점,restaurant,놀라운토요일 180회 장터국밥 맛집,경기도 안성시 중앙로411번길 20,37.0076414,127.2728901,경기
show,놀라운 토요일,크림브라운,cafe,놀라운토요일 215회 쫀득바 맛집,경기도 안양시 만안구 안양로323번길 36 1층,37.3996805,126.91808,경기
show,놀라운 토요일,안양감자탕,restaurant,놀라운토요일 215회 콩비지감자탕 맛집,경기도 안양시 만안구 장내로 143,37.3981254,126.923344,경기
show,놀라운 토요일,호유동,restaurant,놀라운토요일 215회 대창덮밥 맛집,경기도 안양시 만안구 장내로139번길 62 1층,37.4002413,126.921241,경기
show,놀라운 토요일,두물길한정식,restaurant,놀라운토요일 188회 꽃게장 맛집,경기도 양평군 양서면 양수로 111 2층,37.5419107,127.322734,경기
show,놀라운 토요일,소문난연칼국수,restaurant,놀라운토요일 188회 연잎장칼국수 맛집,경기도 양평군 양서면 양수로152번길 2-1,37.5444513,127.319475,경기
show,놀라운 토요일,구월식탁,restaurant,놀라운토요일 158회 양식 맛집,경기도 용인시 처인구 금령로56번길 5-14,37.234279,127.203933,경기
show,놀라운 토요일,911온반,restaurant,놀라운토요일 158회 꽃게가찜한닭 맛집,경기도 용인시 처인구 금령로71번길 2 2층,37.2353597,127.20424,경기
show,놀라운 토요일,클래식129,cafe,"놀라운토요일 158회 오자몽요거트, 패션프루츠 맛집",경기도 용인시 처인구 금령로78번길 8,37.2345206,127.204903,경기
show,놀라운 토요일,몽크루아상,cafe,놀라운토요일 135회 에그페이스트리 맛집,경기도 이천시 서희로39번길 3,37.2790439,127.442162,경기
show,놀라운 토요일,WOO BAM,restaurant,놀라운토요일 135회 매운짜장떡볶이 맛집,경기도 이천시 서희로72번길 26,37.2816119,127.444545,경기
show,놀라운 토요일,숯불쪽갈비 개미식당,restaurant,놀라운토요일 135회 쪽갈비 맛집,경기도 이천시 어재연로 20 1층,37.2786137,127.443941,경기
show,놀라운 토요일,언칼국수 금촌본점,restaurant,놀라운토요일 145회 바지락칼국수 맛집,경기도 파주시 금정20길 23,37.7619419,126.7747662,경기
show,놀라운 토요일,초리골초계탕,restaurant,놀라운토요일 172회 초계탕 맛집,경기도 파주시 법원읍 초리골길 110,37.8510934,126.889384,경기
show,놀라운 토요일,콩밭뜰,restaurant,놀라운토요일 145회 짬뽕순두부 맛집,경기도 파주시 새꽃로 205 1층 콩밭뜰,37.7658346,126.775204,경기
show,놀라운 토요일,오븐애,cafe,놀라운토요일 145회 쿠키슈 맛집,경기도 파주시 아동로 13 1층,37.7648093,126.776137,경기
show,놀라운 토요일,록키즈버거,restaurant,놀라운토요일 127회 칠리치즈버거 맛집,경기도 평택시 쇼핑로 8,37.0803619,127.050607,경기
show,놀라운 토요일,카운팅스타,cafe,놀라운토요일 127회 바나나푸딩 맛집,경기도 평택시 쇼핑로 8-1 1층,37.0803529,127.050563,경기
show,놀라운 토요일,감골순대국,restaurant,놀라운토요일 127회 순댓국 맛집,경기도 평택시 중앙시장로 23-1,37.0802618,127.052913,경기
show,놀라운 토요일,토속밀냉면칼국수,restaurant,놀라운토요일 164회 닭칼국수 맛집,경기도 하남시 대성로299번길 39,37.5372252,127.205462,경기
show,놀라운 토요일,솔온,cafe,놀라운토요일 231회 티그레 맛집,경기도 하남시 덕풍공원로 19-1 2층,37.5413816,127.198504,경기
show,놀라운 토요일,하남도래창구이,restaurant,놀라운토요일 231회 홍막창 맛집,경기도 하남시 수리북로 21,37.541591,127.202532,경기
show,놀라운 토요일,민혜네묵은지삼겹살,restaurant,놀라운토요일 164회 묵은지오삼두루치기 맛집,경기도 하남시 신평로 65,37.5394328,127.205355,경기
show,놀라운 토요일,회뜨는풍경,restaurant,놀라운토요일 231회 대하구이 맛집,경기도 하남시 신평로55번길 28,37.5391926,127.203544,경기
show,놀라운 토요일,밀양밀면맛집,restaurant,놀라운토요일 128회 밀면 맛집,경상남도 밀양시 남천강변로 49,35.4914906,128.752041,경상
show,놀라운 토요일,Doft Coffee Roasters,cafe,놀라운토요일 128회 단풍라떼 맛집,경상남도 밀양시 삼문4길 3-1,35.4877732,128.74925,경상
show,놀라운 토요일,산삼장어구이,restaurant,놀라운토요일 128회 장어산삼구이 맛집,경상남도 밀양시 영남루2길 5,35.4933925,128.754496,경상
show,놀라운 토요일,고래상회,restaurant,놀라운토요일 174회 대창닭볶음탕 맛집,경상남도 창원시 성산구 마디미로 28 3층 C동 347호,35.2222083,128.683374,경상
show,놀라운 토요일,북면오리농원,restaurant,놀라운토요일 174회 오리채소산더미 맛집,경상남도 창원시 성산구 마디미로 28 상남시장 D동 3층 308호,35.2222083,128.683374,경상
show,놀라운 토요일,니재빵집,cafe,놀라운토요일 174회 바닐라빈왕슈 맛집,경상남도 창원시 성산구 원이대로 674,35.2233047,128.686834,경상
show,놀라운 토요일,블레,cafe,놀라운토요일 228회 시나몬롤 맛집,경상북도 경주시 동문로 16 1층,35.8460997,129.214082,경상
show,놀라운 토요일,오륙돈,restaurant,놀라운토요일 228회 돈곰탕 맛집,경상북도 경주시 동성로 129,35.8432511,129.214644,경상
show,놀라운 토요일,고향밀면 본점,restaurant,"놀라운토요일 228회 물밀면, 비빔밀면 맛집",경상북도 경주시 태종로791번길 7,35.8415701,129.214432,경상
show,놀라운 토요일,진이나루터,restaurant,놀라운토요일 234회 쪼림닭 맛집,경상북도 안동시 경동로 862,36.5593157,128.750021,경상
show,놀라운 토요일,돈의맛숯불구이,restaurant,놀라운토요일 234회 항정살 맛집,경상북도 안동시 용상시장6길 6,36.5578654,128.748771,경상
show,놀라운 토요일,츈츈,cafe,"놀라운토요일 234회 우유롤케이크, 라즈베리소 맛집",경상북도 안동시 전거리8길 76 1층,36.5591932,128.748544,경상
show,놀라운 토요일,시민제과,cafe,놀라운토요일 137회 찹쌀떡 맛집,경상북도 포항시 북구 불종로 48,36.0383328,129.364674,경상
show,놀라운 토요일,장기식당,restaurant,놀라운토요일 137회 소머리곰탕 맛집,경상북도 포항시 북구 죽도시장3길 9-12,36.0358823,129.365577,경상
show,놀라운 토요일,엄마네 밥상,restaurant,놀라운토요일 222회 낙지볶음 맛집,광주광역시 남구 구성로 16-1,35.1522521,126.899287,광주
show,놀라운 토요일,김명화서리태콩국수,restaurant,놀라운토요일 222회 서리태콩국수 맛집,광주광역시 남구 천변좌로338번길 16,35.1486182,126.908674,광주
show,놀라운 토요일,꽃돼지수산식당,restaurant,놀라운토요일 154회 사천식해물볶음 맛집,광주광역시 동구 양림로 120 1층 125호,35.1399472,126.921292,광주
show,놀라운 토요일,이소양과점,cafe,놀라운토요일 154회 커스터드푸딩 맛집,광주광역시 동구 제봉로 63,35.1441563,126.921057,광주
show,놀라운 토요일,양동빵집,cafe,놀라운토요일 222회 소금빵 맛집,광주광역시 서구 경열로 150,35.1542189,126.90149,광주
show,놀라운 토요일,울엄마손메밀묵 관문점,restaurant,놀라운토요일 214회 손메밀냉묵채 맛집,대구광역시 남구 대명서로 151 1층 골목안,35.8343421,128.55734,대구
show,놀라운 토요일,유쾌한뭉티기,restaurant,놀라운토요일 214회 한우세트 맛집,대구광역시 달서구 야외음악당로 3 1층,35.837719,128.552647,대구
show,놀라운 토요일,딜리저트 송현점,cafe,놀라운토요일 214회 요거트케이크 맛집,대구광역시 달서구 중흥로 14 1층,35.8324044,128.555266,대구
show,놀라운 토요일,보람베이킹카페,cafe,놀라운토요일 208회 콘치즈감자스콘 맛집,대구광역시 달성군 현풍읍 테크노북로 33-8 1층,35.6927852,128.449264,대구
show,놀라운 토요일,현풍한우왕본점,restaurant,놀라운토요일 208회 한우차돌된장찌개 맛집,대구광역시 달성군 현풍읍 현풍동로 198,35.7018069,128.440168,대구
show,놀라운 토요일,미소갈비찜,restaurant,놀라운토요일 208회 돼지갈비찜 맛집,대구광역시 달성군 현풍읍 현풍로6길 5,35.694771,128.44224,대구
show,놀라운 토요일,십이리할매소구레국밥,restaurant,놀라운토요일 150회 소구레국수 맛집,대구광역시 달성군 현풍읍 현풍로6길 5,35.694771,128.44224,대구
show,놀라운 토요일,달달스푼,cafe,놀라운토요일 150회 제리치즈케이크 맛집,대구광역시 달성군 현풍읍 현풍로6길 5 청년몰 205호,35.694771,128.44224,대구
show,놀라운 토요일,현주떡볶이,restaurant,놀라운토요일 150회 치킨치즈떡볶이 맛집,대구광역시 달성군 현풍읍 현풍로6길 5 현풍백년도깨비시장 청년몰 102호,35.694771,128.44224,대구
show,놀라운 토요일,형제횟집,restaurant,놀라운토요일 162회 물회 맛집,대전광역시 대덕구 중리로76번길 22,36.3657138,127.426381,대전
show,놀라운 토요일,등뼈감자탕&등갈비,restaurant,놀라운토요일 162회 묵은지감자탕 맛집,대전광역시 대덕구 중리북로 35,36.3663453,127.426183,대전
show,놀라운 토요일,카페공사이,cafe,놀라운토요일 162회 생크림폭탄와플 맛집,대전광역시 대덕구 중리북로31번길 41 1층,36.364739,127.426832,대전
show,놀라운 토요일,더가득한 패밀리레스토랑,restaurant,놀라운토요일 230회 파돈가스 맛집,대전광역시 서구 도마2길 64 더가득한 2층,36.3144621,127.38155,대전
show,놀라운 토요일,신가네추어탕,restaurant,놀라운토요일 230회 추어탕 맛집,대전광역시 서구 도마3길 69,36.3160068,127.380378,대전
show,놀라운 토요일,하오치띵호와,restaurant,놀라운토요일 136회 뚝배기고추짬뽕 맛집,대전광역시 유성구 문화원로6번길 90,36.3581201,127.337721,대전
show,놀라운 토요일,시장보리밥집,restaurant,놀라운토요일 136회 오리인삼주물럭 맛집,대전광역시 유성구 유성대로730번길 33,36.358003,127.334478,대전
show,놀라운 토요일,어나더그래비티,cafe,놀라운토요일 230회 크림브륄레 맛집,대전광역시 중구 유등천동로 374 1층,36.3151468,127.387244,대전
show,놀라운 토요일,무봤나세발낙지,restaurant,놀라운토요일 143회 매생이연포탕 맛집,부산광역시 동구 조방로49번길 11 제일상가아파트,35.1397799,129.060591,부산
show,놀라운 토요일,범일빈대떡,restaurant,놀라운토요일 143회 감자해물파전 맛집,부산광역시 동구 중앙대로 519,35.1396016,129.056231,부산
show,놀라운 토요일,청림식당,restaurant,놀라운토요일 143회 민물장어더덕불고기 맛집,부산광역시 동구 진시장로 13 진시장주차빌딩 104호,35.1377057,129.058027,부산
show,놀라운 토요일,담미옥,restaurant,놀라운토요일 187회 온반 맛집,부산광역시 부산진구 복지로 15 개금포르투나 상가 103호,35.1517717,129.020603,부산
show,놀라운 토요일,달봉이족발,restaurant,놀라운토요일 187회 불족볶음 맛집,부산광역시 부산진구 복지로13번길 45,35.1521048,129.022784,부산
show,놀라운 토요일,영심이수제도너츠,cafe,"놀라운토요일 187회 백앙금생도넛, 팥찹쌀도넛 맛집",부산광역시 부산진구 복지로13번길 47,35.1521108,129.02296,부산
show,놀라운 토요일,동래식당,restaurant,놀라운토요일 179회 갈치정식 맛집,부산광역시 부산진구 서면로 56 1층 차3호,35.1556457,129.058149,부산
show,놀라운 토요일,몰레,cafe,놀라운토요일 179회 꿀사과요거트시폰케이크 맛집,부산광역시 부산진구 신천대로50번길 70 2층,35.1539103,129.060047,부산
show,놀라운 토요일,떡장인방앗간,restaurant,놀라운토요일 179회 수제떡볶이 맛집,부산광역시 부산진구 중앙대로692번길 21-3,35.1546527,129.060373,부산
show,놀라운 토요일,이원화구포국시,restaurant,놀라운토요일 220회 가오리회비빔국수 맛집,부산광역시 북구 구포시장1길 6,35.2089524,129.00366,부산
show,놀라운 토요일,로터리커피,restaurant,놀라운토요일 220회 술떡버터구이 맛집,부산광역시 북구 금곡대로 3 1층,35.2104993,129.004939,부산
show,놀라운 토요일,보스식당,restaurant,놀라운토요일 220회 어묵전골 맛집,부산광역시 북구 만덕대로16번길 48 2층,35.2083912,129.007621,부산
show,놀라운 토요일,우에노421,restaurant,놀라운토요일 212회 로제파스타 맛집,서울특별시 강남구 테헤란로 231 조선팰리스호텔 지하2층 우에노421,37.5031929,127.041474,서울
show,놀라운 토요일,카페씨모,cafe,놀라운토요일 173회 버터스카치바 맛집,서울특별시 강동구 고덕로38길 69,37.5514626,127.142671,서울
show,놀라운 토요일,섹시한떡볶이 암사점,restaurant,놀라운토요일 148회 매운어묵 맛집,서울특별시 강동구 상암로11길 11,37.5501452,127.128534,서울
show,놀라운 토요일,추남,restaurant,"놀라운토요일 173회 등심돈가스, 떡볶이 맛집",서울특별시 강동구 양재대로 1622-4 1층,37.5502263,127.144298,서울
show,놀라운 토요일,더상추,restaurant,놀라운토요일 173회 차돌된장전골 맛집,서울특별시 강동구 양재대로130길 11,37.5459294,127.143623,서울
show,놀라운 토요일,암사고바우감자탕,restaurant,놀라운토요일 149회 콩비지뼈전골 맛집,서울특별시 강동구 올림픽로 812,37.5532892,127.128947,서울
show,놀라운 토요일,워더커피,cafe,놀라운토요일 176회 누네띠네스콘 맛집,서울특별시 강북구 도봉로53길 16 KH하우스 1층,37.6268763,127.024843,서울
show,놀라운 토요일,솥뚜껑웰빙보리밥,restaurant,놀라운토요일 176회 솥뚜껑보리밥 맛집,서울특별시 강북구 도봉로67길 18,37.630752,127.0229047,서울
show,놀라운 토요일,수유골목냉면 본점,restaurant,놀라운토요일 176회 명태회냉면 맛집,서울특별시 강북구 솔매로45길 92,37.630057,127.02404,서울
show,놀라운 토요일,육탕상점,restaurant,놀라운토요일 217회 차돌양지육탕 맛집,서울특별시 강서구 강서로 148,37.5401769,126.841819,서울
show,놀라운 토요일,모에뜨,cafe,놀라운토요일 132회 우유크림식빵 맛집,서울특별시 강서구 등촌로53길 10 천우네오젠아파트 101호,37.549556,126.863063,서울
show,놀라운 토요일,조선제일빵,cafe,놀라운토요일 217회 샐러드빵 맛집,서울특별시 강서구 초록마을로2길 48 1층,37.5432425,126.843487,서울
show,놀라운 토요일,화곡영양족발,restaurant,놀라운토요일 217회 족발 맛집,서울특별시 강서구 초록마을로2길 48 1층,37.5432425,126.843487,서울
show,놀라운 토요일,못골낙곱새,restaurant,놀라운토요일 147회 콩낙삼 맛집,서울특별시 관악구 남부순환로 1936 1층,37.4766142,126.963951,서울
show,놀라운 토요일,돈파스팔레,restaurant,놀라운토요일 147회 돈파스 맛집,서울특별시 관악구 남부순환로 1947 1층,37.4765925,126.9653907,서울
show,놀라운 토요일,몽마베이커리,cafe,놀라운토요일 147회 샐러드빵 맛집,서울특별시 관악구 남부순환로248길 20,37.475155,126.965489,서울
show,놀라운 토요일,릴리베이커리,cafe,놀라운토요일 168회 크림치즈마늘빵 맛집,서울특별시 광진구 능동로13길 21 1층,37.5429583,127.070689,서울
show,놀라운 토요일,어멍네고기국수,restaurant,놀라운토요일 168회 고사리육개장 맛집,서울특별시 광진구 능동로13길 77,37.5450047,127.06879,서울
show,놀라운 토요일,무무요거트,cafe,놀라운토요일 225회 당근케이크그릭요거트 맛집,서울특별시 광진구 뚝섬로 613-1 2층,37.5384028,127.079499,서울
show,놀라운 토요일,페어이너프,restaurant,놀라운토요일 225회 게내장파스타 맛집,서울특별시 광진구 뚝섬로 613-1 2층,37.5326284,127.078068,서울
show,놀라운 토요일,조현우국밥,restaurant,놀라운토요일 225회 돼지갈비탕 맛집,서울특별시 광진구 자양로13길 60 1층,37.5340048,127.081282,서울
show,놀라운 토요일,황가네맛있는포장마차,restaurant,놀라운토요일 193회 철판콩나물불고기 맛집,서울특별시 구로구 경인로35길 131-25,37.5012932,126.851198,서울
show,놀라운 토요일,고척종합어시장&포장전문점 고척점,restaurant,놀라운토요일 191회 우럭매운탕 맛집,서울특별시 구로구 고척로 137 1층,37.502741,126.849046,서울
show,놀라운 토요일,도넛공방,cafe,놀라운토요일 192회 찐빵 맛집,서울특별시 구로구 고척로32길 4 1층 102호,37.5023086,126.84907,서울
show,놀라운 토요일,일번옥,restaurant,"놀라운토요일 163회 돼지갈비, 냉면 맛집",서울특별시 구로구 구로동로 96-2,37.4873031,126.88535,서울
show,놀라운 토요일,박가네 보리밥.손칼국수,restaurant,놀라운토요일 219회 바지락수제비 맛집,서울특별시 구로구 구로동로22길 23 1층,37.489583,126.885777,서울
show,놀라운 토요일,유진성원칼국수,restaurant,놀라운토요일 163회 고등어무조림 맛집,서울특별시 구로구 구로동로26길 65 2층,37.4900355,126.887811,서울
show,놀라운 토요일,로마니나과자점,cafe,놀라운토요일 163회 딸기생크림롤케이크 맛집,서울특별시 구로구 구로동로28길 2,37.4906719,126.884373,서울
show,놀라운 토요일,숯피우는남자,restaurant,놀라운토요일 219회 주꾸미양념구이 맛집,서울특별시 구로구 구로동로28길 67,37.4910447,126.887844,서울
show,놀라운 토요일,희하당,cafe,"놀라운토요일 219회 수제젤리, 티 맛집",서울특별시 구로구 도림로12길 20 101호,37.4865589,126.889094,서울
show,놀라운 토요일,진영면옥,restaurant,놀라운토요일 166회 양지곰탕 맛집,서울특별시 금천구 가산로 22-5,37.4715493,126.900387,서울
show,놀라운 토요일,도넛 인사이드 도넛,cafe,놀라운토요일 166회 도넛 맛집,서울특별시 금천구 시흥대로141길 81 1층,37.4764771,126.8976283,서울
show,놀라운 토요일,시골파전,restaurant,"놀라운토요일 166회 감자국수전, 꼬막무침 맛집",서울특별시 금천구 시흥대로142길 23,37.4733966,126.900611,서울
show,놀라운 토요일,청정꼬막,restaurant,놀라운토요일 186회 꼬막비빔밥 맛집,서울특별시 노원구 동일로173가길 108 1층,37.6231092,127.072361,서울
show,놀라운 토요일,리프노즈드아쉬지,cafe,놀라운토요일 186회 에끌레어 맛집,서울특별시 노원구 동일로178길 11-13 리프노즈드아쉬지,37.6217833,127.074761,서울
show,놀라운 토요일,공도,restaurant,놀라운토요일 186회 치킨크림파스타 맛집,서울특별시 노원구 동일로178길 14 드림데시앙 1층 103호,37.6210801,127.075451,서울
show,놀라운 토요일,먹고을밥상,restaurant,놀라운토요일 213회 수육전골 맛집,서울특별시 도봉구 덕릉로 268,37.6411076,127.040687,서울
show,놀라운 토요일,창동할머니 토스트,restaurant,놀라운토요일 213회 토스트 맛집,서울특별시 도봉구 덕릉로60다길 15 창동 562-15,37.6381346,127.039847,서울
show,놀라운 토요일,카페 매로우,cafe,"놀라운토요일 213회 모카라떼, 흑임자라떼 맛집",서울특별시 도봉구 덕릉로60다길 34,37.6375853,127.039077,서울
show,놀라운 토요일,만두의정석,restaurant,놀라운토요일 141회 찐빵 맛집,서울특별시 동작구 국사봉1길 45 1층,37.4992953,126.93094,서울
show,놀라운 토요일,시래불고기 화풍정,restaurant,놀라운토요일 141회 시래기불고기 맛집,서울특별시 동작구 상도로 102 성대전통시장 2층,37.4998546,126.932025,서울
show,놀라운 토요일,상도면옥,restaurant,놀라운토요일 141회 사골떡만둣국 맛집,서울특별시 동작구 성대로1길 3,37.5004045,126.932488,서울
show,놀라운 토요일,달인꽈배기,cafe,놀라운토요일 133회 꽈배기 맛집,서울특별시 서대문구 통일로 205-3,37.5711998,126.960768,서울
show,놀라운 토요일,한옥집 김치찜 본점,restaurant,놀라운토요일 133회 김치찜 맛집,서울특별시 서대문구 통일로9길 12 ,37.567222,126.964322,서울
show,놀라운 토요일,곱순이네,restaurant,놀라운토요일 157회 야채곱창 맛집,서울특별시 성동구 무학봉26길 12,37.5615169,127.03287,서울
show,놀라운 토요일,"카페,브라운팟",cafe,놀라운토요일 157회 더블뺑오쇼콜라 맛집,서울특별시 성동구 무학봉28길 16 1층,37.5616429,127.033594,서울
show,놀라운 토요일,옥별정,cafe,놀라운토요일 212회 바나나우유크림도넛 맛집,서울특별시 성동구 무학봉길 82 1-3F and Roof,37.5614993,127.031489,서울
show,놀라운 토요일,은좌식당,restaurant,놀라운토요일 212회 닭한마리 맛집,서울특별시 성동구 왕십리로 330,37.5628863,127.033233,서울
show,놀라운 토요일,춘향미엔 왕십리점,restaurant,"놀라운토요일 157회 냉면, 만두 맛집",서울특별시 성동구 왕십리로21길 26 1층,37.5605981,127.031964,서울
show,놀라운 토요일,카페 원오프,cafe,놀라운토요일 146회 초코베리브라우니 맛집,서울특별시 성북구 동소문로22길 57-4 2층,37.5905137,127.018819,서울
show,놀라운 토요일,보배반점 성신여대점,restaurant,놀라운토요일 146회 차돌짬뽕 맛집,서울특별시 성북구 보문로34길 39 백옥빌딩,37.5907571,127.017449,서울
show,놀라운 토요일,대파곱창,restaurant,놀라운토요일 146회 모둠곱창 맛집,서울특별시 성북구 보문로38길 37,37.5910907,127.015898,서울
show,놀라운 토요일,언짠네,restaurant,"놀라운토요일 189회 철판두루치기, 고추장찌개 맛집",서울특별시 송파구 마천로45길 26 1층,37.4979063,127.150848,서울
show,놀라운 토요일,내일도두부,restaurant,놀라운토요일 189회 강된톳두부밥 맛집,서울특별시 송파구 마천로45길 30,37.4983202,127.151279,서울
show,놀라운 토요일,리리카페,cafe,"놀라운토요일 189회 생크림고구마, 뱅쇼 맛집",서울특별시 송파구 성내천로 233,37.4994348,127.153362,서울
show,놀라운 토요일,뻘건낙지 목동점,restaurant,놀라운토요일 232회 연포탕 맛집,서울특별시 양천구 목동중앙남로11길 3 1층 뻘건낙지,37.5391526,126.865729,서울
show,놀라운 토요일,낮밤,restaurant,놀라운토요일 232회 두부두루치기 맛집,서울특별시 양천구 목동중앙남로4길 8 1층,37.5365602,126.867861,서울
show,놀라운 토요일,통큰해물탕,restaurant,놀라운토요일 132회 해물탕 맛집,서울특별시 양천구 목동중앙북로5길 30,37.5494694,126.866096,서울
show,놀라운 토요일,쿱 coop,cafe,놀라운토요일 169회 젤라또 맛집,서울특별시 용산구 새창로12길 3 1층,37.5392676,126.958024,서울
show,놀라운 토요일,찌갠 쭈꾸미,restaurant,놀라운토요일 169회 쭈꾸미삼겹살 맛집,서울특별시 용산구 원효로41길 60,37.5353673,126.960663,서울
show,놀라운 토요일,용문장터국수,restaurant,놀라운토요일 169회 열무국수 맛집,서울특별시 용산구 효창원로40길 3-3 1층,37.5369797,126.959542,서울
show,놀라운 토요일,돈국수,restaurant,놀라운토요일 152회 가락국수 맛집,서울특별시 은평구 가좌로 213-2,37.5888547,126.918028,서울
show,놀라운 토요일,서울지짐이,restaurant,"놀라운토요일 182회 오징어쟁반쫄면, 녹두전 맛집",서울특별시 은평구 불광로 15,37.6099263,126.927903,서울
show,놀라운 토요일,태조대림감자국,restaurant,놀라운토요일 152회 양념뼈구이 맛집,서울특별시 은평구 응암로 172,37.587196,126.916682,서울
show,놀라운 토요일,밀14길,cafe,놀라운토요일 152회 딸기생크림빵 맛집,서울특별시 은평구 응암로14길 14,37.5899185,126.918887,서울
show,놀라운 토요일,봉스디,cafe,"놀라운토요일 182회 밀크티푸딩, 초코브라우니푸딩 맛집",서울특별시 은평구 통일로63길 1 1층 우측,37.6078744,126.931653,서울
show,놀라운 토요일,미락치킨 경복궁본점,restaurant,놀라운토요일 147회 마늘철판치킨 맛집,서울특별시 종로구 자하문로 17-1,37.5776181,126.97187,서울
show,놀라운 토요일,총각네호떡,restaurant,놀라운토요일 147회 핫도그 맛집,서울특별시 종로구 자하문로15길 18,37.5807531,126.969921,서울
show,놀라운 토요일,티엔미미 서촌점,restaurant,놀라운토요일 147회 완자탕면 맛집,서울특별시 종로구 자하문로7길 19 1층,37.5786179,126.970635,서울
show,놀라운 토요일,화수분 약수본점,restaurant,놀라운토요일 142회 감자피자 맛집,서울특별시 중구 다산로 103,37.5533939,127.009497,서울
show,놀라운 토요일,진남포면옥,restaurant,놀라운토요일 142회 이북식찜닭 맛집,서울특별시 중구 다산로 108,37.5534299,127.010119,서울
show,놀라운 토요일,약수동해물텀벙,restaurant,놀라운토요일 142회 꼬막비빔밥 맛집,서울특별시 중구 다산로10길 11,37.553556,127.010776,서울
show,놀라운 토요일,클래직,cafe,놀라운토요일 134회 청포도요거트데니쉬 맛집,서울특별시 중구 마른내로 62-1 2층,37.5641428,126.994659,서울
show,놀라운 토요일,충무로청국장,restaurant,놀라운토요일 134회 청국장정식 맛집,서울특별시 중구 퇴계로41길 7,37.5620796,126.995644,서울
show,놀라운 토요일,호남식당,restaurant,놀라운토요일 134회 돼지물갈비 맛집,서울특별시 중구 퇴계로41길 9,37.5622057,126.995633,서울
show,놀라운 토요일,대파집 중랑직영점,restaurant,놀라운토요일 159회 대파차돌 맛집,서울특별시 중랑구 망우로30길 20,37.5924654,127.074596,서울
show,놀라운 토요일,위자드쏘어,cafe,놀라운토요일 177회 초코쿠키앤크림케이크 맛집,서울특별시 중랑구 봉우재로57길 46 1층 상가,37.5967127,127.094949,서울
show,놀라운 토요일,거여돈가스,restaurant,놀라운토요일 129회 햄버그스테이크 맛집,서울특별시 중랑구 송림길 5,37.5993975,127.095065,서울
show,놀라운 토요일,소중한식당,restaurant,"놀라운토요일 177회 가지덮밥, 크림새우 맛집",서울특별시 중랑구 용마산로115길 109 한일써너스빌2차,37.5975692,127.094169,서울
show,놀라운 토요일,우림닭한마리,restaurant,놀라운토요일 177회 닭매운탕 맛집,서울특별시 중랑구 용마산로115길 26 1층,37.5989981,127.098813,서울
show,놀라운 토요일,망우리오징어집 본점,restaurant,놀라운토요일 129회 짬뽕물회 맛집,서울특별시 중랑구 용마산로115길 31,37.5986649,127.098564,서울
show,놀라운 토요일,물맷돌 한우 곰탕,restaurant,놀라운토요일 183회 갈비수육 맛집,세종특별자치시 금남면 용포로 107-1,36.4680907,127.281115,세종
show,놀라운 토요일,그랜드 제빵소,cafe,놀라운토요일 183회 복숭아빵 맛집,세종특별자치시 금남면 용포로 119-55 1층~2층,36.4676289,127.278202,세종
show,놀라운 토요일,북어찜전문점,restaurant,놀라운토요일 183회 북어찜 맛집,세종특별자치시 금남면 용포쑥티1길 8,36.4636379,127.281579,세종
show,놀라운 토요일,명우네수구레국밥,restaurant,놀라운토요일 138회 수구레무침 맛집,세종특별자치시 조치원읍 새내12길 16,36.6021922,127.298821,세종
show,놀라운 토요일,MODEST IMPACT,cafe,놀라운토요일 138회 딸기티라미수 맛집,세종특별자치시 조치원읍 으뜸길 233 1층,36.6019366,127.296518,세종
show,놀라운 토요일,세종설렁탕,restaurant,놀라운토요일 138회 도가니탕 맛집,세종특별자치시 조치원읍 조치원2길 10,36.6007359,127.297374,세종
show,놀라운 토요일,플립플롭,cafe,놀라운토요일 178회 단호박케이크 맛집,울산광역시 남구 돋질로239번길 27-1 1층,35.5454678,129.329998,울산
show,놀라운 토요일,수정간장게장,restaurant,"놀라운토요일 235회 양념게장, 간장게장 맛집",울산광역시 남구 봉월로82번길 50-2,35.5410604,129.310864,울산
show,놀라운 토요일,황금참숯뒷통구이,restaurant,놀라운토요일 178회 돼지뒤통구이 맛집,울산광역시 남구 월평로 41,35.5417514,129.310068,울산
show,놀라운 토요일,원조할매낙지,restaurant,놀라운토요일 178회 낙곱새 맛집,울산광역시 남구 중앙로241번길 3,35.5420184,129.310241,울산
show,놀라운 토요일,인보리,cafe,놀라운토요일 235회 쪽파크림크루아상 맛집,울산광역시 남구 팔등로61번길 12 파라곤 빌라 1층,35.5465363,129.312874,울산
show,놀라운 토요일,카페슈슈,cafe,놀라운토요일 153회 딸기자몽타르트 맛집,인천광역시 계양구 계양산로 189 1층,37.5476653,126.737028,인천
show,놀라운 토요일,육개장395,restaurant,놀라운토요일 153회 육개장 맛집,인천광역시 계양구 병방시장로 66,37.5478141,126.739098,인천
show,놀라운 토요일,라라식당,restaurant,놀라운토요일 153회 명이나물소고기파스타 맛집,인천광역시 계양구 임학서로 10 1층,37.5441612,126.733374,인천
show,놀라운 토요일,도트리스,cafe,놀라운토요일 224회 커스터드푸딩 맛집,인천광역시 서구 염곡로 354,37.5162108,126.668954,인천
show,놀라운 토요일,전라도식당,restaurant,"놀라운토요일 224회 닭볶음탕, 해물부침개 맛집",인천광역시 서구 원창로229번길 5,37.5178848,126.67475,인천
show,놀라운 토요일,쿠메장작구이,restaurant,놀라운토요일 185회 칠리통닭구이 맛집,인천광역시 연수구 능허대로151번길 1,37.4207652,126.646387,인천
show,놀라운 토요일,미가헌 명가만두전골 옥련점,restaurant,놀라운토요일 185 만두칼국수 맛집,인천광역시 연수구 독배로40번길 29 대성빌딩 3층 301호,37.4244867,126.646494,인천
show,놀라운 토요일,카페맑음,cafe,놀라운토요일 126회 쑥인절미케이크 맛집,인천광역시 중구 신포로 32-21,37.4715455,126.62589,인천
show,놀라운 토요일,카페연안,cafe,"놀라운토요일 139회 단팥스무디, 밤스무디 맛집",인천광역시 중구 연안부두로53번길 35,37.4528422,126.604295,인천
show,놀라운 토요일,제이콥스 핏제리아,restaurant,놀라운토요일 126회 페퍼로니피자 맛집,인천광역시 중구 우현로45번길 29,37.4711237,126.626423,인천
show,놀라운 토요일,교동고로케,restaurant,놀라운토요일 161회 전주비빔밥크로켓 맛집,전라북도 전주시 완산구 경기전길 126,35.8138056,127.151091,전라
show,놀라운 토요일,백송회관,restaurant,놀라운토요일 131회 전주비빔밥 맛집,전라북도 전주시 완산구 기린대로 177,35.8234244,127.149151,전라
show,놀라운 토요일,큰가마,restaurant,놀라운토요일 175회 한우해물전골 맛집,전라북도 전주시 완산구 노송광장로 46,35.8251941,127.146498,전라
show,놀라운 토요일,수정관,restaurant,놀라운토요일 131회 해물쟁반물짜장 맛집,전라북도 전주시 완산구 문화광장로 18,35.822247,127.146493,전라
show,놀라운 토요일,Cafe홍시궁 객리단길 본점,cafe,놀라운토요일 131회 홍시크림타르트 맛집,전라북도 전주시 완산구 전주객사1길 94,35.8204091,127.13829,전라
show,놀라운 토요일,가마,restaurant,놀라운토요일 175회 루꼴라화덕피자 맛집,전라북도 전주시 완산구 전주객사4길 74 2층,35.820881,127.14327,전라
show,놀라운 토요일,아이것이갈비탕이다,restaurant,놀라운토요일 161회 소갈비찜 맛집,전라북도 전주시 완산구 풍남문1길 15,35.8126559,127.147969,전라
show,놀라운 토요일,삼번집,restaurant,놀라운토요일 161회 콩나물국밥 맛집,전라북도 전주시 완산구 풍남문1길 9-6,35.8123387,127.1478677,전라
show,놀라운 토요일,천년누리 전주빵카페,cafe,놀라운토요일 175회 수제초코파이 맛집,전라북도 전주시 완산구 현무3길 91,35.8228729,127.1485895,전라
show,놀라운 토요일,모임,cafe,놀라운토요일 167회 생과일음료 맛집,충청남도 홍성군 광천읍 광천로 290,36.4999085,126.625847,충청
show,놀라운 토요일,미도식당,restaurant,"놀라운토요일 167회 한우불고기, 갈비탕 맛집",충청남도 홍성군 광천읍 광천로 300-1,36.5007391,126.626334,충청
show,놀라운 토요일,광천손칼국수,restaurant,놀라운토요일 167회 서리태콩국수 맛집,충청남도 홍성군 광천읍 광천로277번길 15,36.4997149,126.624464,충청
show,놀라운 토요일,다르다면,restaurant,놀라운토요일 216회 떡갈비비빔면 맛집,충청북도 단양군 단양읍 도전4길 27,36.9823183,128.36946,충청
show,놀라운 토요일,대교약선요리,restaurant,놀라운토요일 216회 불고기버섯전골 맛집,충청북도 단양군 단양읍 별곡9길 15,36.9846442,128.37013,충청
show,놀라운 토요일,카페 인 단양,cafe,놀라운토요일 216회 마늘아포가토 맛집,충청북도 단양군 단양읍 수변로 123,36.9864345,128.371151,충청
show,놀라운 토요일,함지박소머리국밥,restaurant,놀라운토요일 223회 소머리국밥 맛집,충청북도 증평군 증평읍 역전로 17 역전로 17,36.7843695,127.578764,충청
show,놀라운 토요일,핫포차,restaurant,놀라운토요일 223회 오징어철판치즈감자채전 맛집,충청북도 증평군 증평읍 윗장뜰길 73,36.7858468,127.584399,충청
show,놀라운 토요일,신항도복집,restaurant,놀라운토요일 140회 까치복찜 맛집,충청북도 청주시 청원구 우암로 59,36.653881,127.485589,충청
show,놀라운 토요일,쉐.아라,cafe,놀라운토요일 140회 오렌지가나슈무스 맛집,충청북도 청주시 청원구 율봉로 211 103호 쉐아라,36.6684237,127.492504,충청
show,놀라운 토요일,북부칼국수,restaurant,놀라운토요일 140회 칼만두 맛집,충청북도 청주시 청원구 향군로31번길 15,36.6481742,127.486247,충청
show,놀라운 토요일,스마트뽕뽕,restaurant,놀라운토요일 151회 백짬뽕탕 맛집,충청북도 청주시 흥덕구 경산로 50 스마트뽕뽕,36.624483,127.437456,충청
show,놀라운 토요일,장터뼈다귀해장국,restaurant,놀라운토요일 151회 묵은지갈비찜 맛집,충청북도 청주시 흥덕구 복대로146번길 5-8,36.6299114,127.441377,충청
show,놀라운 토요일,미모쿠키,cafe,"놀라운토요일 190회 민트초코쿠키, 황크림치즈쿠키 맛집",충청북도 충주시 사직로 310 1층 미모쿠키,36.9690209,127.945544,충청
show,놀라운 토요일,신토불이,restaurant,놀라운토요일 190회 해물순두부 맛집,충청북도 충주시 지현천변1길 45,36.9684679,127.932275,충청
show,놀라운 토요일,낮과밤,restaurant,놀라운토요일 190회 매콤로제크림면 맛집,충청북도 충주시 지현천변1길 55-2,36.9689458,127.93109,충청
show,놀라운 토요일,영미네곱창 본점,restaurant,놀라운토요일 24회 막창,서울특별시 중구 마장로9길 38,37.6608826,127.0042027,서울
show,놀라운 토요일,남경막국수,restaurant,놀라운토요일 110회 들깨막국수,서울특별시 송파구 백제고분로7길 52-29,37.5094199,127.0851186,서울
show,놀라운 토요일,한강회관,restaurant,놀라운토요일 198회 우거지탕,서울특별시 용산구 이촌로75길 10-3,37.5203452,126.9743504,서울
show,놀면뭐하니,을지로 백만불식품,restaurant,놀면뭐하니에서 유본부장과 정과장이 다녀간 집,"서울특별시 중구 창경궁로 5길 34-12 1,2층",37.567447,126.996039,서울
show,런닝맨,오션월드,playground,런닝맨 409회 촬영 장소,강원도 홍천군 서면 한치골길 262,37.648221,127.685587,강원
show,런닝맨,쁘띠프랑스,playground,런닝맨402회 오프닝 장소,경기도 가평군 청평면 호반로 1063,37.714908,127.490287,경기
show,런닝맨,풍동562 Cafe,cafe,런닝맨 452회에서 티셔츠 디자인한 장소,경기도 고양시 일산동구 애니골길 18-13,37.669334,126.791007,경기
show,런닝맨,알마센,cafe,런닝맨 435회 오프닝 장소,경기도 고양시 일산동구 약산길 41,37.6822654,126.79219,경기
show,런닝맨,더 누룽지,restaurant,런닝맨 432회 중식당 미션 장소,경기도 고양시 일산서구 미래로 184-12,37.694052,126.747158,경기
show,런닝맨,김포아트빌리지,playground,런닝맨 453회에 나왔던 아트센터,경기도 김포시 모담공원로 170,37.645403,126.695971,경기
show,런닝맨,시흥 오이도 선사유적공원,playground,런닝맨 425회 8남매 컨셉의 촬영 장소,경기도 시흥시 서해안로 113-27,37.342743,126.69549,경기
show,런닝맨,등대횟집,restaurant,런닝맨 425회 꽃게찜 먹은 장소,경기도 시흥시 오이도로 161,37.346463,126.688331,경기
show,런닝맨,청춘조개본점,restaurant,런닝맨 425회 새우구이 먹은 장소,경기도 시흥시 오이도로 199-1,37.343017,126.687101,경기
show,런닝맨,시흥오이도박물관,playground,런닝맨 425회 김병옥과 만난 장소,경기도 시흥시 오이도로 332,37.335465,126.690874,경기
show,런닝맨,아방리추어탕해물탕,restaurant,런닝맨 425회 추어탕 포장 한 장소,경기도 시흥시 오이도중앙로 36번길 6-3,37.345566,126.689053,경기
show,런닝맨,정성담 안양점,restaurant,472회 안양 편에 김종국의 설렁탕 맛집,경기도 안양시 동안구 관악대로 249,37.402294,126.950394,경기
show,런닝맨,명가돈까스,restaurant,472회 안양 편에 김종국의 추억이 담긴 돈가스집,경기도 안양시 만안구 장내로139번길 30,37.398991,126.922289,경기
show,런닝맨,시몬스 테라스점,playground,423회 서열 전쟁으로 멤버들 모두 모여 있던 곳,경기도 이천시 모가면 사실로 988,37.197657,127.446241,경기
show,런닝맨,롤킹롤러스케이트장,playground,런닝맨 447회 세 번째 미션 장소,경기도 파주시 교하로 910 해오름스퀘어 3층,37.727318,126.705407,경기
show,런닝맨,물빛하늘정원 본점,restaurant,런닝맨 404회에서 국보탕 먹은 곳,경기도 파주시 탄현면 새오리로 209-23,37.800868,126.687744,경기
show,런닝맨,지노카페,cafe,런닝맨 446회 데이트 & 미션 장소,경기도 파주시 탄현면 새오리로 211-31,37.800985,126.686346,경기
show,런닝맨,헤이리 예술마을,playground,런닝맨 452회 촬영장소,경기도 파주시 탄현면 헤이리마을길 70-21,37.788146,126.698883,경기
show,런닝맨,헤이리 하늘마당공원,playground,런닝맨 447회 네번째 데이트 장소,경기도 파주시 탄현면 헤이리마을길 70-21,37.791132,126.696865,경기
show,런닝맨,퍼스트가든,playground,런닝맨 432회 촬영 장소,경기도 파주시 탑삭골길 260 ,37.7321551,126.793933,경기
show,런닝맨,스피드파크,playground,런닝맨 447회 세 번째 데이트장소,경기도 파주시 파평면 청송로652번길 42-191,37.936149,126.872411,경기
show,런닝맨,웃다리문화촌,playground,런닝맨 403회 고립레이스 촬영 장소,경기도 평택시 서탄면 용소금각로 438-14,37.068806,127.00858,경기
show,런닝맨,평강랜드,playground,런닝맨 422회 촬영 장소,경기도 포천시 영북면 우물목길 171-18,38.04957,127.3039,경기
show,런닝맨,김해가야테마파크,playground,351회 '위험한 관광'의 레이스 최종 미션지,경상남도 김해시 가야테마길 161,35.250928,128.893085,경상
show,런닝맨,코리아 짚와이어,playground,런닝맨 400회 짚라인 이용한 곳,경상남도 하동군 금남면 경충로 493-9,34.98247,127.895974,경상
show,런닝맨,궁상각치우,restaurant,255회 초복의 여왕편에서 삼계탕을 둔 한판 대결한 곳,경상북도 경주시 다불로 105,35.872649,129.236626,경상
show,런닝맨,청도 읍성,playground,471회 청도 편에서 첫 번째 미션 한 곳,경상북도 청도군 화양읍 동상리,35.650217,128.707127,경상
show,런닝맨,마비정 벽화마을,playground,146회에 송편 레이스를 하던 곳,대구광역시 달성군 화원읍 마비정길 262-5,35.778975,128.541849,대구
show,런닝맨,오륙도 스카이워크,playground,런닝맨 421회 유리바닥 닦기 아르바이트 한 곳,부산광역시 남구 오륙도로 137,35.098046,129.123975,부산
show,런닝맨,초량 이바구길,playground,런닝맨 421회 이바구 자전거 아르바이트 한 곳,부산광역시 동구 초량동 865-48,35.116798,129.03657,부산
show,런닝맨,영진돼지국밥코스트코센텀점,restaurant,런닝맨 328회 돼지국밥 먹은 장소,부산광역시 수영구 구락로 86,35.174692,129.117415,부산
show,런닝맨,국제시장,playground,런닝맨 421회 난데없이 펼쳐진 불꽃 추격전 장소,부산광역시 중구 국제시장 2길 25,35.101577,129.028302,부산
show,런닝맨,원조밀면,restaurant,런닝맨 328회에서 국제시장 밀면 먹은 곳,부산광역시 중구 중구로 31-1,35.100716,129.027594,부산
show,런닝맨,새아침식당,restaurant,런닝맨 328회 해운대에서 조개구이 먹은 곳,부산광역시 해운대구 달맞이길62번길 28 새아침맛집,35.158847,129.170513,부산
show,런닝맨,알베르,cafe,런닝맨 438회 능력자vs에이스 대결 장소,서울특별시 강남구 강남대로102길 34,37.682245,126.792136,서울
show,런닝맨,도산공원,playground,런닝맨 440회에서 팀원을 정한 장소,서울특별시 강남구 도산대로45길 20 도산전시관,37.524491,127.035323,서울
show,런닝맨,봉밀가 강남구청점,restaurant,김종국팀이 평양냉면 먹은 장소,서울특별시 강남구 선릉로 664,37.515833,127.042273,서울
show,런닝맨,늘푸른목장 상암점,restaurant,런닝맨 451회 두 번째 미션 장소,서울특별시 마포구 매봉산로2길 15,37.578425,126.894991,서울
show,런닝맨,문화비축기지,playground,런닝맨 457회 오프닝 장소,서울특별시 마포구 증산로 87,37.571029,126.894111,서울
show,런닝맨,시골집청국장,restaurant,런닝맨 439회 유재석 팀이 청국장 먹은 장소,서울특별시 서초구 양재천로 109-20 1층,37.477604,127.039883,서울
show,런닝맨,우리옛돌박물관,playground,런닝맨 448회 오프닝 장소,서울특별시 성북구 대사관로13길 66,37.600825,126.990155,서울
show,런닝맨,카페 b,cafe,런닝맨 404회 오프닝 장소,서울특별시 성북구 보문로30길 71,37.590627,127.019654,서울
show,런닝맨,한상,restaurant,런닝맨 445회 식사 장소,서울특별시 성북구 화랑로 248,37.610266,127.056854,서울
show,런닝맨,와플덴 숙대정문점,cafe,"김종국, 전소민이 와플 먹은 곳",서울특별시 용산구 청파로47길 78,37.545073,126.966157,서울
show,런닝맨,핏제리아오,restaurant,런닝맨 404회 랍스타 피자 먹은 곳,"서울특별시 종로구 동숭길 86 2, 3층",37.582032,127.004275,서울
show,런닝맨,서울역사박물관,playground,런닝맨441회 꿀벌레이스 장소,서울특별시 종로구 새문안로 55,37.570537,126.970557,서울
show,런닝맨,용마랜드,playground,런닝맨 401회 연령고지 촬영 장소,서울특별시 중랑구 망우로70길 118 ,37.594468,127.105556,서울
show,런닝맨,장생포 고래문화마을,playground,350회 코끼리 코 돌고 신발 날리는 미션 한 곳,울산광역시 남구 장생포고래로 244,35.505806,129.381259,울산
show,런닝맨,삼목선착장,playground,런닝맨 399회 신시모도 가는 배를 탄 곳,인천광역시 중구 영종해안북로 847번길 55,37.498718,126.453866,인천
show,런닝맨,문차이나,restaurant,481회 인천 미식 로드 편 첫 번째 미션 한 곳,인천광역시 중구 차이나타운로 20,37.47746,126.619042,인천
show,런닝맨,미륵사지,playground,"런닝맨 405회 오프닝, 첫 번째 미션 장소",전라북도 익산시 금마면 기양리 32-7,36.012365,127.030613,전라
show,런닝맨,전주한옥마을,playground,런닝맨 330회 촬영 장소,전라북도 전주시 완산구 기린대로 99,35.81579,127.153349,전라
show,런닝맨,공산성,playground,런닝맨 405회 마지막 미션 장소,충청남도 공주시 웅진로 280,36.465013,127.12361,충청
show,런닝맨,궁남지,playground,런닝맨 405회 두 번째 미션 장소,충청남도 부여군 부여읍 궁남로 52,36.269619,126.91224,충청
show,런닝맨,의림지역사박물관,playground,런닝맨 450회 첫 번째 미션장소,충청북도 제천시 의림대로47길 7,37.176084,128.20926,충청
show,런닝맨,청풍호반케이블카,playground,런닝맨 450회 세번째 미션 장소,충청북도 제천시 청풍면 문화재길 166,37.001438,128.166611,충청
show,런닝맨,명암보트장,playground,162회 블록 드롭으로 높게 뜨는 미션을 했던 곳,충청북도 청주시 상당구 명암로 98번길 38,36.642867,127.512071,충청
show,맛남의광장,옥계휴게소(속초방향),playground,맛남의 광장 홍게라면이 있는 휴게소,강원도 강릉시 옥계면 동해고속도로 320,37.616209,129.060212,강원
show,맛남의광장,강릉오죽한옥마을,playground,맛남의 광장에서 머문 강릉 오죽 한옥마을,강원도 강릉시 죽헌동 885,37.776892,128.878025,강원
show,맛남의광장,여강재펜션,stay,맛남의 광장에서 방문한 여주 펜션,경기도 여주시 강천면 강문로 248,37.28745,127.682904,경기
show,맛남의광장,채움펜션,playground,맛남의 광장 용인 편 저녁식사 장소,경기도 용인시 처인구 포곡읍 포곡로272번길 19-11,37.277124,127.232364,경기
show,맛남의광장,키마리스,playground,맛남의 광장 남해 편에서 머문 펜션,경상남도 남해군 창선면 흥선로 1671-15,34.837617,128.049645,경상
show,맛남의광장,마리하우스,stay,맛남의 광장 군산 편에서 머무른 숙소,인천광역시 강화군 화도면 마니산로584번길 90,37.634213,126.441023,인천
show,맛남의광장,명사십리길104,stay,맛남의 광장 완도 편에서 방문한 펜션,전라남도 완도군 신지면 신리 815-16번지,34.326446,126.804363,전라
show,맛남의광장,제주올레여행자센터,playground,맛남의 광장에서 방문한 제주올레 여행자 센터,제주특별자치도 서귀포시 서귀동 중정로 22,33.247453,126.5587,제주
