,식당이름,카테고리,별점,리뷰 수,웹사이트,주소,지역명,위도,경도
0,덕수식당,restaurant,4.7,670,https://place.map.kakao.com/8891473,충남 태안군 태안읍 중앙로 133-8 1층(지번) 태안읍 동문리 339-15,충청,36.7517624319305,126.303150353864
1,한일식당,restaurant,3.6,347,https://place.map.kakao.com/9573537,충남 예산군 삽교읍 삽교역로 58(지번) 삽교읍 신가리 20-14,충청,36.6846272742569,126.7490913337
2,장춘닭개장,restaurant,4.2,187,https://place.map.kakao.com/11169052,충남 당진시 정안로 50 1층(지번) 원당동 381,충청,36.9065427068526,126.649845123804
3,엄가네본가시골집,restaurant,3.7,284,https://place.map.kakao.com/13311506,충남 천안시 서북구 봉정로 168-2(지번) 성정동 142-6,충청,36.816956898438,127.142705919327
4,에이스식당,restaurant,4.8,109,https://place.map.kakao.com/9250070,충남 당진시 면천면 면천서문1길 70(지번) 면천면 성상리 768-1,충청,36.8169804452289,126.666814344499
5,뚜쥬루 돌가마점,cafe,4.1,872,https://place.map.kakao.com/23578013,충남 천안시 동남구 풍세로 706(지번) 구룡동 564-27,충청,36.7730532058072,127.139546619755
6,뚜쥬루 성정점,cafe,4.1,43,https://place.map.kakao.com/21351241,충남 천안시 서북구 백석로 270(지번) 성정동 695-1,충청,36.8183741444005,127.139609350077
7,낭만고깃집형님 두정본점,restaurant,4.1,4,https://place.map.kakao.com/26092532,충남 천안시 서북구 노태산로 56 1층(지번) 두정동 596,충청,36.8296921130373,127.127619245082
8,천진중화요리,restaurant,3.8,34,https://place.map.kakao.com/8581907,충남 천안시 동남구 공고담길 43-5(지번) 신부동 386-125,충청,36.8166076742598,127.15683593987
9,혜주네맛집,restaurant,4.7,23,https://place.map.kakao.com/26813057,충남 당진시 신평면 맷돌포길 70(지번) 신평면 부수리 224-1,충청,36.9095382130795,126.814602374353
10,산애들애,restaurant,3.7,1164,https://place.map.kakao.com/21345355,충남 논산시 연산면 황룡재로 64-11 1층(지번) 연산면 연산리 54-9,충청,36.2067903143413,127.222092889167
11,반월소바,restaurant,4.3,794,https://place.map.kakao.com/21254192,충남 논산시 해월로 132 1층(지번) 반월동 176-5,충청,36.2029392180546,127.082485542036
12,한우가좋은날,restaurant,3.6,135,https://place.map.kakao.com/251870636,충남 아산시 음봉면 탕정면로 507 1층(지번) 음봉면 덕지리 170,충청,36.8287512387,127.091808957284
26,뚜쥬루 거북이점,cafe,3.7,264,https://place.map.kakao.com/27463396,충남 천안시 서북구 봉서산로 69-22(지번) 불당동 763,충청,36.8072042030145,127.114148765433
27,딴뚝통나무집식당,restaurant,3.8,3762,https://place.map.kakao.com/12344439,충남 태안군 안면읍 조운막터길 23-22 1층(지번) 안면읍 승언리 60-42,충청,36.5094323081386,126.350977984354
28,뜨끈이집해장국,restaurant,3.9,95,https://place.map.kakao.com/21275371,충남 예산군 덕산면 덕산온천로 331-6(지번) 덕산면 신평리 265-8,충청,36.6962430211551,126.662782860051
29,내당한우,restaurant,4.0,189,https://place.map.kakao.com/11891832,충남 홍성군 홍성읍 아문길52번길 6(지번) 홍성읍 오관리 393-2,충청,36.6003656619111,126.663752603598
30,블렌데렌,cafe,4.6,154,https://place.map.kakao.com/853217400,"충남 천안시 동남구 먹거리8길 5 1, 2층(지번) 신부동 452-10",충청,36.8170715430945,127.153538578564
31,마곡사서울식당,restaurant,3.9,200,https://place.map.kakao.com/635769168,충남 공주시 사곡면 마곡상가길 13-2(지번) 사곡면 운암리 729-10,충청,36.5561912474635,127.019687840676
32,카페피어라,cafe,3.8,1002,https://place.map.kakao.com/587310721,충남 당진시 합덕읍 합덕대덕로 502-24(지번) 합덕읍 석우리 48-35,충청,36.8061309776846,126.740328573905
33,목화반점,restaurant,3.7,964,https://place.map.kakao.com/7876599,충남 아산시 온주길26번길 7-3 1층(지번) 읍내동 151-3,충청,36.761452215322,127.019216260197
34,아우어베이커리 천안신불당점,cafe,4.1,213,https://place.map.kakao.com/332566550,충남 천안시 서북구 불당23로 73-27 1층 140~143호(지번) 불당동 1491,충청,36.8204151618986,127.109688700018
35,초원콩국수,restaurant,4.1,128,https://place.map.kakao.com/1024464268,충남 당진시 면천면 동문1길 14(지번) 면천면 성상리 1117,충청,36.8170777292329,126.668575203061
36,서들한우,restaurant,4.4,988,https://place.map.kakao.com/1807140510,충남 천안시 서북구 두정고5길 34 1층(지번) 두정동 1978,충청,36.8345922993402,127.133236987749
37,소플러스 천안점,restaurant,4.6,67,https://place.map.kakao.com/33294791,충남 천안시 서북구 음봉로 909-11 1동 1층(지번) 백석동 604-2,충청,36.8251015837995,127.106186792733
38,세종이도삼계탕 본점,restaurant,3.5,85,https://place.map.kakao.com/1937466785,충남 아산시 배방읍 배방로14번길 20-3 1층(지번) 배방읍 공수리 1508,충청,36.7757627929054,127.052182546532
39,신사우물갈비 불당본점,restaurant,4.5,1963,https://place.map.kakao.com/787754999,충남 천안시 서북구 불당25로 182 1층(지번) 불당동 1531,충청,36.8173065194698,127.108701907543
40,고마나루1999,restaurant,4.2,139,https://place.map.kakao.com/8684887,충남 공주시 백미고을길 5-8(지번) 금성동 183-4,충청,36.464910027798,127.122707825697
41,한우드소 염치점,restaurant,3.6,540,https://place.map.kakao.com/12695164,충남 아산시 염치읍 염치로 5 1층(지번) 염치읍 염성리 215-4,충청,36.8165445461159,126.972893154572
42,산장식당,restaurant,3.7,22,https://place.map.kakao.com/1118998821,충남 아산시 염치읍 현대로 434 지하 1층(지번) 염치읍 산양리 116,충청,36.8263011983558,126.927464651269
43,분반차 정다운아지트,restaurant,4.0,251,https://place.map.kakao.com/27420325,충남 공주시 반포면 정광터1길 70 1층(지번) 반포면 봉곡리 325-24,충청,36.4017624432551,127.236168830595
44,그니식당 평양냉면,restaurant,4.2,145,https://place.map.kakao.com/1928169619,충남 천안시 서북구 두정중7길 34 1층 101호(지번) 두정동 1517,충청,36.8338950379756,127.142020488535
45,죽순산장,restaurant,4.0,175,https://place.map.kakao.com/11155160,충남 아산시 음봉면 음봉면로 227(지번) 음봉면 원남리 262,충청,36.8634047518245,127.023965959105
46,장칼국수,restaurant,4.1,601,https://place.map.kakao.com/24269752,충남 천안시 동남구 천안천8길 49 1층(지번) 신부동 623,충청,36.8216822276254,127.156320062191
47,루치아의 뜰,cafe,4.4,198,https://place.map.kakao.com/21626744,충남 공주시 웅진로 145-8(지번) 중동 171-2,충청,36.4537901846156,127.123776711352
48,조리고 직산점,restaurant,4.2,97,https://place.map.kakao.com/1378832192,충남 천안시 서북구 성거읍 직산로 18-70 1층(지번) 성거읍 신월리 1,충청,36.879241895955,127.161297742316
49,길목식당,restaurant,4.4,17,https://place.map.kakao.com/15566568,충남 아산시 온천대로 1491-2 지하1층(지번) 온천동 91-8,충청,36.7816273802237,127.003660873817
50,원당풍천장어,restaurant,4.6,30,https://place.map.kakao.com/1927736058,충남 당진시 고실1길 41-10(지번) 수청동 438-1,충청,36.9035440124157,126.649862080673
51,공주집,restaurant,3.5,200,https://place.map.kakao.com/11032502,충남 천안시 서북구 성환읍 송덕2길 113 1층(지번) 성환읍 송덕리 54-3,충청,36.9236436469562,127.118846315406
52,라루체,cafe,4.7,353,https://place.map.kakao.com/1306216300,충남 공주시 반포면 계룡대로 1392(지번) 반포면 학봉리 260-1,충청,36.3597239483527,127.252640035609
53,백향,restaurant,4.3,198,https://place.map.kakao.com/27319942,충남 천안시 동남구 화령길 3-52 1층(지번) 유량동 393-23,충청,36.812374076019,127.173204081021
54,시골통닭,restaurant,3.9,401,https://place.map.kakao.com/21255026,충남 부여군 부여읍 중앙로5번길 14-9 1층(지번) 부여읍 구아리 173,충청,36.2820010671733,126.911616001502
55,조리고 천안점,restaurant,4.3,192,https://place.map.kakao.com/549841262,"충남 천안시 동남구 차돌고개7길 1 2, 3층(지번) 다가동 376-4",충청,36.80050675832453,127.13703936860963
56,구옹진냉면,restaurant,3.7,107,https://place.map.kakao.com/9670552,충남 서산시 번화2로 8-2 1층(지번) 읍내동 141-22,충청,36.7802780628294,126.449829070595
57,청당정원,restaurant,4.0,305,https://place.map.kakao.com/97977104,충남 천안시 동남구 청당2길 131 1층(지번) 청당동 143,충청,36.7805076632657,127.157260747206
58,꽃게와꽃게집 본점,restaurant,4.6,1451,https://place.map.kakao.com/27414603,충남 당진시 송악읍 신복운로 173-1 1층(지번) 송악읍 복운리 1642-9,충청,36.9411890163325,126.783561310987
59,인주 필드점,cafe,4.3,483,https://place.map.kakao.com/958410011,충남 아산시 배방읍 호서로 272(지번) 배방읍 회룡리 160-1,충청,36.7558329487323,127.076511482147
60,원산면옥,restaurant,4.1,891,https://place.map.kakao.com/176605451,충남 논산시 은진면 매죽헌로 99 1층(지번) 은진면 연서리 491,충청,36.1620561864043,127.105455755479
61,부자상황삼계탕,restaurant,4.5,8,https://place.map.kakao.com/26315881,충남 천안시 서북구 동서대로 17-40(지번) 백석동 107-1,충청,36.8274162939859,127.124024825145
62,하루,cafe,4.8,70,https://place.map.kakao.com/20796261,충남 아산시 용화로48번길 4-10 1층(지번) 온천동 3094,충청,36.7748056205034,127.009345888181
63,육품,restaurant,4.9,96,https://place.map.kakao.com/26775253,충남 아산시 음봉면 월암로 86(지번) 음봉면 월랑리 197-3,충청,36.8444428168835,127.078512946249
64,우렁이박사,restaurant,4.0,761,https://place.map.kakao.com/8031120,충남 당진시 신평면 샛터로 7-1 1층(지번) 신평면 도성리 499-11,충청,36.8799733547556,126.802764816924
65,삿뽀로 천안점,restaurant,3.8,48,https://place.map.kakao.com/12515606,충남 천안시 서북구 원두정1길 7 1-2층(지번) 두정동 807,충청,36.830968172677,127.133606340151
66,중식이맛있는집 메이탄 천안점,restaurant,3.6,157,https://place.map.kakao.com/24823059,충남 천안시 서북구 다가말3길 2 2층(지번) 쌍용동 542-5,충청,36.7973959229944,127.13105661857
67,스시린 두정점,restaurant,4.4,236,https://place.map.kakao.com/584489111,충남 천안시 서북구 원두정8길 6 1층(지번) 두정동 899,충청,36.8322990075927,127.133775906192
68,제이스맨션,cafe,4.0,181,https://place.map.kakao.com/595668871,충남 천안시 서북구 불당28길 24 1층(지번) 불당동 1604,충청,36.811432853292,127.101941131878
69,노을연탄구이 천안본점,restaurant,4.7,79,https://place.map.kakao.com/24217439,충남 천안시 서북구 미라9길 10 1층(지번) 쌍용동 1099,충청,36.8035358679346,127.129127372222
81,방가삼대 얼큰한뼈해장국 본점,restaurant,3.7,110,https://place.map.kakao.com/10057607,충남 아산시 탕정면 삼성로 520-9(지번) 탕정면 동산리 168,충청,36.8253958486675,127.091018307921
82,봉일식,restaurant,4.9,20,https://place.map.kakao.com/14978308,충남 보령시 옥마역길 81(지번) 명천동 14-16,충청,36.3332444762121,126.620308069765
83,그리고스페셜티,cafe,4.3,1008,https://place.map.kakao.com/1322536802,충남 천안시 동남구 유량로 104(지번) 유량동 360-15,충청,36.807127926227,127.17275432485
84,카페브리드,cafe,4.0,85,https://place.map.kakao.com/27315060,충남 아산시 신정로 486(지번) 기산동 16,충청,36.7634795274203,126.974014470479
85,산내들,restaurant,3.9,181,https://place.map.kakao.com/9811591,충남 천안시 서북구 서부1길 77 1층(지번) 성정동 618-3,충청,36.8253711340577,127.13785822924
86,맛찬들왕소금구이 천안두정점,restaurant,3.9,177,https://place.map.kakao.com/891137636,충남 천안시 서북구 원두정6길 6 1층(지번) 두정동 808,충청,36.8314272869988,127.133846579324
87,베이커리밤마을,cafe,3.6,1087,https://place.map.kakao.com/904041132,충남 공주시 백미고을길 5-9(지번) 금성동 184-4,충청,36.464753279293,127.123005687337
88,호수매운탕 어죽대부,restaurant,4.1,191,https://place.map.kakao.com/15283675,충남 천안시 서북구 성성2길 61 2층(지번) 성성동 90-5,충청,36.844850733045,127.130089262765
89,제주유기농쌈밥촌 유구점,restaurant,4.7,17,https://place.map.kakao.com/9403448,충남 공주시 유구읍 중앙2길 23 1층(지번) 유구읍 백교리 27-1,충청,36.5466984566235,126.951194405247
90,유장춘닭개장 백석점,restaurant,4.3,127,https://place.map.kakao.com/19857167,충남 천안시 서북구 백석3로 39 1층(지번) 백석동 270,충청,36.8221105596969,127.1152555391
91,신야춘추,restaurant,4.9,25,https://place.map.kakao.com/23407019,충남 공주시 반포면 하신소1길 62-9(지번) 반포면 하신리 274-2,충청,36.3825936280573,127.235930082508
92,꽁당보리밥 배방점,restaurant,4.4,596,https://place.map.kakao.com/21350389,충남 아산시 배방읍 갈매길 159-39 1동 2층(지번) 배방읍 북수리 278-31,충청,36.7672359372359,127.074290451734
93,청화집순대,restaurant,4.2,546,https://place.map.kakao.com/11233700,충남 천안시 동남구 병천면 충절로 1749 1층(지번) 병천면 병천리 167-6,충청,36.7623467490991,127.299220238358
94,알토,restaurant,3.9,164,https://place.map.kakao.com/27448647,충남 천안시 동남구 청수10길 4-120 1층(지번) 삼룡동 504,충청,36.7822524623858,127.164804449643
95,란베트남쌀국수,restaurant,4.8,269,https://place.map.kakao.com/704636337,충남 천안시 동남구 충절로 244 1층(지번) 구성동 480-9,충청,36.79713295644,127.159143514573
96,나문재카페,cafe,4.2,199,https://place.map.kakao.com/590725586,충남 태안군 안면읍 통샘길 87-340(지번) 안면읍 창기리 209-509,충청,36.5865947602383,126.374312101698
97,육하원칙 직산점,restaurant,3.5,55,https://place.map.kakao.com/1692577079,충남 천안시 서북구 직산읍 부송로 333 1층(지번) 직산읍 자은가리 29-6,충청,36.8789825824319,127.127371777545
98,징기스 천안두정점,restaurant,4.4,41,https://place.map.kakao.com/713940045,충남 천안시 서북구 원두정10길 10 1층(지번) 두정동 915,충청,36.8331898475053,127.135125800061
99,유장춘닭개장 서산점,restaurant,4.4,29,https://place.map.kakao.com/25677871,충남 서산시 무학로 1878 1층(지번) 예천동 739,충청,36.76856396648,126.43578270294
100,꽃게랑아구랑,restaurant,3.7,98,https://place.map.kakao.com/27345126,충남 예산군 덕산면 덕산온천로 321(지번) 덕산면 신평리 232-7,충청,36.6957436530031,126.662636102132
101,뚱보아저씨수제돈가스 아산점,restaurant,4.0,107,https://place.map.kakao.com/1034153520,충남 아산시 번영로234번길 30 하이빌 상가1층(지번) 모종동 585-1,충청,36.7814306997725,127.017483739228
102,팔팔닭떡볶이 천안불당점,restaurant,4.2,62,https://place.map.kakao.com/737487675,충남 천안시 서북구 불당30길 36 1층(지번) 불당동 1765,충청,36.810330226827,127.104156579858
103,큰댁한정식,restaurant,3.8,69,https://place.map.kakao.com/8099965,충남 천안시 서북구 성정중4길 30(지번) 성정동 1254,충청,36.8267433826205,127.136259023908
104,다원맛집,restaurant,4.3,56,https://place.map.kakao.com/1629306287,충남 태안군 남면 천수만로 134-4(지번) 남면 당암리 622-1,충청,36.6256050007371,126.325226394832
105,봄담아 당진점,restaurant,4.0,315,https://place.map.kakao.com/489951721,충남 당진시 대덕1로 125-132 1층(지번) 대덕동 1824,충청,36.8842501642182,126.645821842537
106,하오하오,restaurant,3.9,227,https://place.map.kakao.com/1089295621,충남 천안시 서북구 불당16길 29 삼성빌 1층(지번) 불당동 1367,충청,36.8010274030959,127.1078179901
107,돈백석,restaurant,4.0,106,https://place.map.kakao.com/25548444,충남 천안시 서북구 성정공원2길 14 1층 102호(지번) 성정동 1419,충청,36.8264628364437,127.14311241232
108,팔보돌솥,restaurant,4.6,93,https://place.map.kakao.com/14103981,충남 천안시 동남구 신부2길 8(지번) 신부동 475-1,충청,36.8168072995223,127.158985187876
109,쌍용동시골집,restaurant,3.8,114,https://place.map.kakao.com/418211593,충남 천안시 서북구 서부대로 319-2(지번) 쌍용동 191-21,충청,36.7955005406705,127.125183891963
110,153갈비마을,restaurant,4.1,163,https://place.map.kakao.com/9402048,충남 아산시 남산로 55 1층(지번) 온천동 200-34,충청,36.7803912853153,126.999580360075
111,추억의꽁당보리밥 아산점,restaurant,4.6,182,https://place.map.kakao.com/27573224,충남 아산시 온주길16번길 14 1층(지번) 읍내동 290-9,충청,36.7602244039768,127.017713104603
112,이내,cafe,4.6,313,https://place.map.kakao.com/677472489,충남 아산시 배방읍 배방로13번길 19-6 1층(지번) 배방읍 공수리 1611,충청,36.7766386388811,127.056603930422
113,천안밀면,restaurant,3.6,204,https://place.map.kakao.com/616170174,충남 천안시 서북구 월봉7길 50(지번) 쌍용동 1662,충청,36.7912734195569,127.116582147981
114,백화산가든한식뷔페 태안점,restaurant,3.7,39,https://place.map.kakao.com/13301627,충남 태안군 태안읍 중앙로 333 2층(지번) 태안읍 평천리 679-1,충청,36.7537714561641,126.321600104294
115,피양옥 신불당점,restaurant,3.9,57,https://place.map.kakao.com/1215258389,충남 천안시 서북구 불당25로 176(지번) 불당동 1534,충청,36.8162380448409,127.109126844444
116,청남가든,restaurant,4.8,208,https://place.map.kakao.com/9970939,충남 공주시 사곡면 운정길 78(지번) 사곡면 운암리 576-1,충청,36.5595619828893,127.015511307286
117,해미우시장,restaurant,4.5,218,https://place.map.kakao.com/25101596,충남 서산시 해미면 읍성마을3길 22 1층(지번) 해미면 읍내리 221-56,충청,36.710050414084,126.545151276907
118,술타령,restaurant,5.0,14,https://place.map.kakao.com/22651123,충남 천안시 서북구 두정로 227 1층(지번) 두정동 1505,충청,36.8337800708077,127.142310169641
119,피탕김탕 본점,restaurant,3.8,777,https://place.map.kakao.com/22366091,충남 공주시 한적2길 47-5 1층(지번) 금흥동 616-5,충청,36.478295883319,127.139602779329
120,오월의숲,cafe,4.3,58,https://place.map.kakao.com/2026740246,충남 천안시 서북구 세관길 78(지번) 성정동 361,충청,36.8231951303891,127.145207822583
121,지산흑돈,restaurant,4.8,14,https://place.map.kakao.com/26937423,충남 아산시 남부로 292(지번) 용화동 4-1,충청,36.7709426554125,127.012855131973
122,택이네조개전골 배방점,restaurant,3.8,83,https://place.map.kakao.com/1630034450,충남 아산시 배방읍 배방로13번길 28-10 1층(지번) 배방읍 공수리 1652,충청,36.7753271316624,127.056651245094
123,홍콩반점,restaurant,3.5,32,https://place.map.kakao.com/9634915,충남 아산시 온천대로 1507(지번) 온천동 86-25,충청,36.7812386682379,127.005279388264
124,카페벌곡,cafe,4.3,508,https://place.map.kakao.com/1497771906,충남 논산시 벌곡면 수락로 877 1층(지번) 벌곡면 사정리 462,충청,36.1953105759638,127.265117425999
136,천안옛날 호두과자 천안역점,cafe,3.6,238,https://place.map.kakao.com/8153178,충남 천안시 동남구 대흥로 237-1(지번) 대흥동 57-2,충청,36.8090904032463,127.147566825831
137,라프커피,cafe,4.3,2,https://place.map.kakao.com/776420183,"충남 아산시 신정로 536-1 1,2층(지번) 방축동 555-4",충청,36.7672517734515,126.977480964458
138,스시마츠,restaurant,3.5,129,https://place.map.kakao.com/320679178,"충남 홍성군 홍북읍 청사로174번길 25 성원타워 2층 201,202호(지번) 홍북읍 신경리 553",충청,36.6604327656871,126.680929119485
139,정가네포차,restaurant,3.7,93,https://place.map.kakao.com/15527020,충남 천안시 동남구 풍세로 769-21(지번) 용곡동 116-95,충청,36.7794721916083,127.138407901067
140,대구뭉티기,restaurant,4.6,125,https://place.map.kakao.com/1568725265,충남 천안시 서북구 성정공원6길 51 1층(지번) 성정동 1382,충청,36.8286406983911,127.143283263851
141,원풍식당,restaurant,4.0,134,https://place.map.kakao.com/8024947,충남 태안군 원북면 원이로 841-1 1층(지번) 원북면 반계리 202-12,충청,36.8241955348127,126.258064140731
142,산마루가든,restaurant,4.5,91,https://place.map.kakao.com/9112858,충남 예산군 대흥면 예당긍모로 406(지번) 대흥면 노동리 140-6,충청,36.6400141710089,126.813613119635
143,희미한 옛사랑의 그림자,restaurant,5.0,14,https://place.map.kakao.com/10047116,충남 천안시 서북구 원두정5길 12 1층(지번) 두정동 819-2,충청,36.8310738723126,127.135200882945
144,프리퍼팩토리,cafe,4.6,371,https://place.map.kakao.com/1201906051,충남 천안시 동남구 목천읍 종합휴양지로 77(지번) 목천읍 운전리 434,충청,36.7645000738942,127.229634037436
145,카페다솔,cafe,4.2,30,https://place.map.kakao.com/1835343214,충남 서산시 운산면 봉운로 951-125 서해안청소년수련원(지번) 운산면 원평리 394,충청,36.7644694139691,126.615031910358
146,봉명족발,restaurant,4.8,19,https://place.map.kakao.com/18812536,충남 천안시 서북구 성정로 53 녹산주상빌딩 1층 102호(지번) 성정동 725-11,충청,36.8140037812614,127.136016667619
147,엔학고레,cafe,3.6,389,https://place.map.kakao.com/763376396,충남 공주시 반포면 불장골길 113-12(지번) 반포면 송곡리 454-4,충청,36.3980646643567,127.265762703337
148,황토집사람들,restaurant,4.2,361,https://place.map.kakao.com/10958644,충남 금산군 진산면 태고사로 444 1층(지번) 진산면 두지리 296-16,충청,36.1603364795639,127.338263143305
149,시아반,restaurant,4.5,158,https://place.map.kakao.com/623082685,충남 천안시 서북구 불당30길 24 1층 102호(지번) 불당동 1788,충청,36.8097627665908,127.103469181605
150,송돈가 청당점,restaurant,4.6,41,https://place.map.kakao.com/583017347,충남 천안시 동남구 청수12로 12 1층(지번) 청당동 895,충청,36.7826089143021,127.160742569312
151,카페이숲,cafe,3.8,1140,https://place.map.kakao.com/1885767570,충남 천안시 서북구 성거읍 남창마을1길 32 1층(지번) 성거읍 송남리 133-1,충청,36.8621845707834,127.195422089559
152,숲속의문,cafe,5.0,91,https://place.map.kakao.com/432996016,충남 천안시 동남구 양지말2길 61 1-3층(지번) 유량동 82-8,충청,36.8122194794749,127.186067201729
153,옛날우렁이식당 당진3호점,restaurant,4.3,129,https://place.map.kakao.com/16857859,충남 당진시 무수동1길 25-13(지번) 읍내동 1106,충청,36.8893203782307,126.638409903221
154,의평식당,restaurant,3.8,5,https://place.map.kakao.com/10665844,충남 보령시 중앙시장1길 11(지번) 대천동 331-7,충청,36.3509844346829,126.59352578672
155,유얼스,cafe,4.6,117,https://place.map.kakao.com/1353969404,충남 천안시 서북구 불당31길 37(지번) 불당동 1654,충청,36.8102154509266,127.105355091455
156,냉면만허유,restaurant,4.0,7,https://place.map.kakao.com/11433016,충남 서산시 부석면 취평2길 15-10 1층(지번) 부석면 취평리 257-18,충청,36.7136753584369,126.391957330565
157,소담,restaurant,5.0,7,https://place.map.kakao.com/21254041,충남 홍성군 홍성읍 문화로85번길 46-2 1층(지번) 홍성읍 오관리 572-2,충청,36.5947185692659,126.659904274433
158,숯불닭갈비전문점굽다 천안두정점,restaurant,5.0,32,https://place.map.kakao.com/84735193,충남 천안시 서북구 두정로 229(지번) 두정동 1506-1,충청,36.833682550484,127.142628131723
159,스타벅스 계룡대로DT점,cafe,3.7,19,https://place.map.kakao.com/887980713,충남 계룡시 엄사면 번영로 6(지번) 엄사면 엄사리 284,충청,36.2884326447468,127.244331057907
160,이우철한방누룽지삼계탕 백석직영점,restaurant,3.5,114,https://place.map.kakao.com/1664977523,충남 천안시 서북구 한들2로 46-5 1층(지번) 백석동 100,충청,36.8271658877998,127.119705197268
161,만섬,restaurant,4.6,414,https://place.map.kakao.com/11405964,충남 홍성군 홍성읍 내포로251번길 26(지번) 홍성읍 옥암리 495-1,충청,36.5886345520844,126.642784910532
162,꼭이집 불당동점,restaurant,5.0,243,https://place.map.kakao.com/1292334334,충남 천안시 서북구 검은들3길 9 메트로프라자빌딩 107호 꼭이집불당동점(지번) 불당동 697,충청,36.8110445939171,127.110290360082
163,육화미 두정점,restaurant,4.7,925,https://place.map.kakao.com/919326753,충남 천안시 서북구 두정로 179 1층(지번) 두정동 965,충청,36.8339525630715,127.136999347638
164,한촌설렁탕 온양온천점,restaurant,4.4,11,https://place.map.kakao.com/498965222,충남 아산시 온천대로 1480 1층(지번) 온천동 212-18,충청,36.7815439734769,127.002168918913
165,황소숯불꼼장어구이,restaurant,5.0,30,https://place.map.kakao.com/27433348,충남 논산시 중앙로398번길 16 1층(지번) 취암동 1062-10,충청,36.2004451271192,127.090602789926
166,미식가,restaurant,4.4,176,https://place.map.kakao.com/63107069,충남 태안군 태안읍 정주내3길 16-5 1층(지번) 태안읍 동문리 897-8,충청,36.7461643552505,126.305017486458
167,백미한우정육식당,restaurant,3.7,2814,https://place.map.kakao.com/119438176,충남 천안시 서북구 성정두정로 14 스위스캐슬 101호(지번) 성정동 1453,충청,36.8268625322572,127.141334159134
168,골든로우프,cafe,4.4,62,https://place.map.kakao.com/679784735,충남 천안시 서북구 불당30길 42 1층(지번) 불당동 1762,충청,36.810725445747,127.104063090514
169,계룡산동학식당,restaurant,3.5,3,https://place.map.kakao.com/27576722,충남 공주시 반포면 천장이길 2(지번) 반포면 학봉리 794-8,충청,36.3580207417496,127.236836015417
170,만강,restaurant,4.1,36,https://place.map.kakao.com/1796322067,충남 천안시 동남구 청당2길 73 1층(지번) 청당동 283-29,충청,36.780919708165,127.151312435874
171,핑안,restaurant,4.6,102,https://place.map.kakao.com/69066788,충남 아산시 번영로 57(지번) 실옥동 17-176,충청,36.78690316142,126.997145624499
172,유진짬뽕앤돈까스,restaurant,4.4,119,https://place.map.kakao.com/27180551,충남 논산시 연무읍 안심로140번길 49 1층(지번) 연무읍 동산리 894-232,충청,36.1297636273329,127.102331969116
173,코끼리공장,cafe,4.0,252,https://place.map.kakao.com/18711649,충남 천안시 동남구 목천읍 동평1길 1-8 1층(지번) 목천읍 운전리 394-10,충청,36.7706221695021,127.231999777923
174,촌집,restaurant,4.0,2,https://place.map.kakao.com/9455728,충남 공주시 유구읍 시장길 41(지번) 유구읍 석남리 249-2,충청,36.5541501565444,126.951626451372
175,태능초가집갈비,restaurant,4.1,311,https://place.map.kakao.com/15176697,충남 논산시 중앙로398번길 7-7 1-2층(지번) 취암동 1050-2,충청,36.2004716527914,127.089242949034
176,태화식당,restaurant,3.9,154,https://place.map.kakao.com/9500122,충남 공주시 사곡면 마곡상가길 10(지번) 사곡면 운암리 728-5,충청,36.5564859034934,127.019808215694
177,더몰트하우스 천안점,restaurant,3.9,182,https://place.map.kakao.com/1265058243,충남 천안시 서북구 불당31길 22 1층(지번) 불당동 1683,충청,36.8093607565666,127.10564932533
178,파전칼국수,restaurant,4.0,152,https://place.map.kakao.com/21497522,충남 태안군 태안읍 시장1길 34 태안서부상가 9호(지번) 태안읍 남문리 170-16,충청,36.7534374660326,126.296180570093
179,청미래,restaurant,4.1,113,https://place.map.kakao.com/1260826952,충남 천안시 서북구 공단로 64 1층(지번) 성성동 210-2,충청,36.8442475343204,127.126328078767
180,소플러스 용곡점,restaurant,5.0,50,https://place.map.kakao.com/1724358682,충남 천안시 동남구 용곡2길 130 1-2층(지번) 용곡동 315-32,충청,36.7922006345525,127.143631605507
181,두부랑가마솥손두부 탕정점,restaurant,3.6,50,https://place.map.kakao.com/1286603584,충남 아산시 탕정면 탕정면로8번길 69 1층(지번) 탕정면 명암리 947-4,충청,36.796666827762,127.062515480971
182,영인산마루,restaurant,4.2,151,https://place.map.kakao.com/11504246,충남 아산시 영인면 아산온천로 16-8(지번) 영인면 아산리 102-2,충청,36.8525993818898,126.959282465217
183,여울목카페,cafe,4.1,27,https://place.map.kakao.com/2099076403,충남 금산군 제원면 낙안길 3(지번) 제원면 천내리 255-1,충청,36.115766051693,127.59104708365
184,마운틴피시텔 레스토랑,restaurant,4.9,88,https://place.map.kakao.com/13110298,충남 천안시 동남구 버들로 4(지번) 대흥동 95,충청,36.8090511757348,127.148459124974
185,미경,restaurant,4.4,38,https://place.map.kakao.com/8345155,충남 아산시 삼동로40번길 46 1층(지번) 모종동 570-2,충청,36.7826154311263,127.015953947572
186,원조명가,restaurant,4.0,51,https://place.map.kakao.com/25763069,충남 보령시 문화원길 42 1층(지번) 대천동 618-258,충청,36.3499578997128,126.598722941066
187,북촌35제빵소,cafe,3.8,243,https://place.map.kakao.com/169101450,충남 공주시 반포면 동학사1로 215(지번) 반포면 학봉리 697-7,충청,36.3598310896639,127.244059457043
201,옛김포식당,restaurant,4.1,99,https://place.map.kakao.com/21690060,충남 천안시 동남구 영성로 25-19 1층(지번) 사직동 184-10,충청,36.8004524284923,127.150097319368
202,면천서문콩국수,restaurant,5.0,6,https://place.map.kakao.com/357176216,충남 당진시 면천면 면천서문1길 64(지번) 면천면 성상리 763-1,충청,36.816921699135,126.666462904185
203,옹기촌,restaurant,3.8,10,https://place.map.kakao.com/14686315,충남 당진시 무수동안길 13(지번) 읍내동 1295-5,충청,36.8890924349817,126.636030151152
204,갱스커피,cafe,3.5,190,https://place.map.kakao.com/377584999,충남 보령시 청라면 청성로 143(지번) 청라면 향천리 142-5,충청,36.3678032922564,126.65458409126
205,박씨물고온제비,restaurant,5.0,30,https://place.map.kakao.com/284243582,충남 천안시 동남구 먹거리11길 40 2층(지번) 신부동 463-2,충청,36.8181077505047,127.157040965516
206,바이더오,cafe,4.2,479,https://place.map.kakao.com/1197283635,충남 보령시 오천면 원산도5길 89-23 1-2층(지번) 오천면 원산도리 1731,충청,36.3813244724665,126.396960068521
207,진짜배기명태촌 논산점,restaurant,3.9,21,https://place.map.kakao.com/859854409,충남 논산시 연산면 계백로 2012(지번) 연산면 청동리 609,충청,36.207373441361,127.195292197146
208,일미옥불고기,restaurant,3.8,22,https://place.map.kakao.com/19661672,충남 홍성군 홍성읍 소향길 66(지번) 홍성읍 소향리 153-2,충청,36.6099124673614,126.656663138095
209,강경해물칼국수,restaurant,3.9,318,https://place.map.kakao.com/8735514,충남 논산시 강경읍 계백로147번길 7 1층(지번) 강경읍 대흥리 56-8,충청,36.1574587795555,127.015406942243
210,마젠타,cafe,4.3,274,https://place.map.kakao.com/1468258180,충남 천안시 서북구 성성2길 81 1동 2~4층(지번) 성성동 266-1,충청,36.8464929942334,127.129597036195
211,한오백년추어탕 부여점,restaurant,4.8,21,https://place.map.kakao.com/607735507,충남 부여군 부여읍 성왕로 160-26 1층(지번) 부여읍 구교리 388-2,충청,36.2789400601689,126.907302913641
212,안면식당,restaurant,3.5,134,https://place.map.kakao.com/9229874,충남 태안군 안면읍 백사장1길 24 1층(지번) 안면읍 창기리 1262-199,충청,36.5829641325948,126.323679102229
213,청룡원조매운탕,restaurant,3.8,64,https://place.map.kakao.com/10847140,충남 천안시 서북구 입장면 성진로 1406(지번) 입장면 도림리 24-3,충청,36.9045125521515,127.278297106209
214,솔밭샤브,restaurant,4.1,31,https://place.map.kakao.com/1943080996,충남 천안시 동남구 만남로 9(지번) 신부동 966,충청,36.8191822529134,127.153016691692
215,바다풍경카페,cafe,4.4,51,https://place.map.kakao.com/11074995,충남 태안군 소원면 만리포2길 235-30 3층(지번) 소원면 의항리 977-30,충청,36.7949538767594,126.14644686423
216,밀양,restaurant,3.5,34,https://place.map.kakao.com/26910445,충남 서산시 부석면 간월도2길 36 1층(지번) 부석면 간월도리 684-2,충청,36.6059587297326,126.420520714656
217,여기서행복할것,cafe,4.5,246,https://place.map.kakao.com/484936840,충남 예산군 삽교읍 충의로 141(지번) 삽교읍 상하리 372-29,충청,36.6967424399714,126.685916978162
218,은행나무집,restaurant,3.6,79,https://place.map.kakao.com/14520738,충남 천안시 동남구 태조산길 137(지번) 유량동 269-2,충청,36.8151504573071,127.177982669
219,금성삼계탕,restaurant,4.4,8,https://place.map.kakao.com/8790276,충남 공주시 먹자1길 17(지번) 중동 147-107,충청,36.4560054840055,127.123199141096
220,수타명가 지흥선푸드빌리지,restaurant,3.8,98,https://place.map.kakao.com/1014844576,충남 서산시 팔봉면 팔봉2로 115(지번) 팔봉면 진장리 913-10,충청,36.7807934955509,126.361760262043
221,공원영양탕,restaurant,4.3,1,https://place.map.kakao.com/23999076,충남 천안시 서북구 월봉8길 4(지번) 쌍용동 1872,충청,36.788935227026,127.115176700965
222,항아리보쌈 서산점,restaurant,4.4,19,https://place.map.kakao.com/19195659,충남 서산시 양유정1로 63 1층(지번) 읍내동 423-3,충청,36.7846871800334,126.448295813924
223,아르체마레,cafe,4.0,331,https://place.map.kakao.com/11945923,충남 금산군 복수면 수영길 10-29 1층(지번) 복수면 수영리 504,충청,36.1734628614552,127.389865362802
224,찐배네꽃갈비 천안점,restaurant,4.1,82,https://place.map.kakao.com/504111741,충남 천안시 서북구 검은들3길 46 1층(지번) 불당동 726,충청,36.8106181388812,127.108680123789
225,광시한우곱창,restaurant,4.0,127,https://place.map.kakao.com/17415791,충남 천안시 서북구 오성로 83(지번) 두정동 835,충청,36.8304677308301,127.136747530646
226,두꺼비,restaurant,4.8,1789,https://place.map.kakao.com/14841713,충남 서산시 율지6로 53 1층(지번) 동문동 199-10,충청,36.778747687867,126.464374557294
227,안면도간장게장맛집 일송꽃게장 본점,restaurant,4.4,1853,https://place.map.kakao.com/8050698,충남 태안군 안면읍 안면대로 2676 1층(지번) 안면읍 승언리 755-5,충청,36.5326864816322,126.349512331097
228,고기박사냉면초계막국수 공주점,restaurant,4.3,38,https://place.map.kakao.com/228424322,충남 공주시 장기로 121 1층(지번) 금흥동 38-10,충청,36.4819171247155,127.152615232262
229,계룡산식당,restaurant,4.4,57,https://place.map.kakao.com/8653228,충남 공주시 반포면 동학사1로 303(지번) 반포면 학봉리 717-4,충청,36.3570484968719,127.235175459961
230,카페안낙,cafe,3.9,467,https://place.map.kakao.com/1935193505,충남 아산시 신정로 496-2 3동(지번) 기산동 13,충청,36.7637240439354,126.974631839696
231,쌈마이대패 아산배방점,restaurant,4.3,293,https://place.map.kakao.com/1291354784,충남 아산시 배방읍 배방로173번길 31 1층(지번) 배방읍 북수리 908,충청,36.7730567760493,127.064925190883
232,스타벅스 논산중앙점,cafe,4.1,30,https://place.map.kakao.com/27086657,충남 논산시 중앙로398번길 13-10(지번) 취암동 1061-10,충청,36.2012814366874,127.089894900831
233,한울타리 보령점,restaurant,3.6,68,https://place.map.kakao.com/16508521,충남 보령시 남대천로 51(지번) 대천동 209-88,충청,36.348681243368,126.593905605054
234,백제궁수라간,restaurant,3.9,55,https://place.map.kakao.com/1335068263,충남 부여군 규암면 백제문로 555(지번) 규암면 호암리 182,충청,36.3064075258353,126.917682419249
235,미담,restaurant,4.3,8,https://place.map.kakao.com/830202696,충남 서산시 한마음5로 44 1층(지번) 석림동 731,충청,36.7731128034657,126.456782195777
236,연잎담,restaurant,3.7,462,https://place.map.kakao.com/624817207,충남 부여군 부여읍 계백로180번길 9-13(지번) 부여읍 동남리 598-2,충청,36.2748562916486,126.901201329583
237,수북로1945,cafe,4.6,121,https://place.map.kakao.com/1194242418,충남 부여군 규암면 수북로41번길 11-50(지번) 규암면 외리 124-1,충청,36.2722523200489,126.887457683363
238,카페 에이엔,cafe,4.2,219,https://place.map.kakao.com/677657533,충남 아산시 배방읍 세교길 107(지번) 배방읍 세교리 522-4,충청,36.7741313733634,127.094604406166
239,명성불고기집,restaurant,4.0,28,https://place.map.kakao.com/21250009,충남 공주시 유구읍 중앙1길 107(지번) 유구읍 석남리 199-5,충청,36.5542608886218,126.950917781657
240,앳267,cafe,3.9,74,https://place.map.kakao.com/24244727,충남 부여군 부여읍 서동로 56 1층(지번) 부여읍 동남리 185-2,충청,36.272432402391,126.910656420127
241,다정보신명가,restaurant,4.4,5,https://place.map.kakao.com/8836144,충남 천안시 서북구 미라13길 21(지번) 쌍용동 946-1,충청,36.8053445321509,127.131064784013
242,이고집만두,restaurant,4.1,667,https://place.map.kakao.com/22319551,충남 천안시 동남구 태조산길 258 1층(지번) 유량동 8-3,충청,36.820537569738,127.188215320966
243,대천가자조개구이,restaurant,4.2,1261,https://place.map.kakao.com/18753750,충남 보령시 해수욕장8길 49(지번) 신흑동 2272-10,충청,36.3132123766879,126.512995625245
244,어썸696,cafe,4.8,9,https://place.map.kakao.com/876072995,"충남 부여군 은산면 충의로 696 1, 2층(지번) 은산면 신대리 355-4",충청,36.31090955857252,126.85440572763544
245,동가룰가든,restaurant,3.5,72,https://place.map.kakao.com/8263934,충남 예산군 대흥면 예당긍모로 358-27(지번) 대흥면 노동리 26-1,충청,36.6360215873619,126.815808140472
246,올드밀,restaurant,3.9,324,https://place.map.kakao.com/20750828,충남 아산시 신정로 532(지번) 방축동 553-2,충청,36.7666756758222,126.976942508007
257,석산장숯불갈비,restaurant,3.6,312,https://place.map.kakao.com/10487761,충남 천안시 동남구 문화로 30 1층(지번) 문화동 30-7,충청,36.8101777858113,127.151710563323
258,허벌냉면,restaurant,3.7,55,https://place.map.kakao.com/21257277,충남 보령시 주산면 만세운동길 33 1층(지번) 주산면 금암리 689-2,충청,36.1977810255984,126.633500789199
259,부엉이돈가스 서천점,restaurant,4.2,22,https://place.map.kakao.com/316124764,충남 서천군 서천읍 충절로 90 1층(지번) 서천읍 군사리 622-5,충청,36.0741918133923,126.69249914062
260,함흥면옥,restaurant,3.7,871,https://place.map.kakao.com/800203641,충남 논산시 대학로 81 1층(지번) 내동 1205,충청,36.1793138327472,127.107011240656
261,KFC 아산터미널점,restaurant,4.2,0,https://place.map.kakao.com/507184114,충남 아산시 번영로 223 1층 102~104호(지번) 모종동 557-3,충청,36.7848546182924,127.015221623721
262,왔쏘 홍성점,restaurant,4.3,27,https://place.map.kakao.com/1456289940,충남 홍성군 홍성읍 조양로 235 2층(지번) 홍성읍 고암리 1037-1,충청,36.5999856128413,126.675606006367
263,교동면옥 천안쌍용점,restaurant,4.1,89,https://place.map.kakao.com/685468921,충남 천안시 서북구 불당대로 291 1층(지번) 쌍용동 384-3,충청,36.7992166385572,127.129145444721
264,불당한우정육식당,restaurant,4.5,69,https://place.map.kakao.com/735251386,충남 천안시 서북구 불당25로 192 2층(지번) 불당동 1487,충청,36.8182902981075,127.108956596403
265,돌솟 해물뼈찜 천안점,restaurant,4.3,142,https://place.map.kakao.com/14575580,충남 천안시 동남구 먹거리8길 31(지번) 신부동 465-11,충청,36.8174056048684,127.15656365099
266,록희원 불당점,restaurant,4.2,625,https://place.map.kakao.com/1392199573,충남 천안시 서북구 불당16길 25-1 1층 101호(지번) 불당동 1313,충청,36.8014704304135,127.107673725158
267,홍굴이해물짬뽕,restaurant,4.0,166,https://place.map.kakao.com/1228134452,충남 천안시 서북구 2공단1로 70 1층(지번) 차암동 43-3,충청,36.849650061995,127.117773244329
268,안고시,restaurant,3.7,37,https://place.map.kakao.com/11600441,충남 천안시 동남구 북면 동평3길 6 1층(지번) 북면 연춘리 168-1,충청,36.7713379571561,127.248192534565
269,떳다횟집,restaurant,3.5,149,https://place.map.kakao.com/10373485,충남 천안시 서북구 천안대로 1016(지번) 두정동 25-77,충청,36.8325160773101,127.152213484962
270,삽다리곱창,restaurant,4.5,75,https://place.map.kakao.com/17452829,충남 예산군 삽교읍 삽교로4길 7(지번) 삽교읍 두리 568-77,충청,36.6867160585536,126.741619102801
271,전통수제비,restaurant,4.4,139,https://place.map.kakao.com/9366786,충남 천안시 동남구 신부2길 7(지번) 신부동 473-3,충청,36.816777538529,127.158733626995
272,두정냉삼집,restaurant,4.3,115,https://place.map.kakao.com/1567725049,충남 천안시 서북구 두정로 168 1층(지번) 두정동 911,충청,36.8335623272183,127.135475873599
273,실브커피,cafe,4.0,371,https://place.map.kakao.com/409557271,충남 아산시 탕정면 선문로254번길 151(지번) 탕정면 매곡리 26-24,충청,36.8101238947846,127.095767993892
274,솔밭식당,restaurant,4.3,11,https://place.map.kakao.com/10558555,충남 홍성군 홍북읍 홍덕서로 235-4 1층(지번) 홍북읍 중계리 479-3,충청,36.6149530468995,126.633423561368
275,마리스,cafe,3.9,163,https://place.map.kakao.com/23700772,충남 천안시 동남구 천호지길 11 1-3층(지번) 안서동 492-2,충청,36.8344066084594,127.172901854085
276,더하고부대찌개,restaurant,4.2,219,https://place.map.kakao.com/933601960,충남 계룡시 금암로 140 1층(지번) 금암동 15-4,충청,36.2749519306821,127.256389889536
277,둥글레식당 온천점,restaurant,4.0,10,https://place.map.kakao.com/307620984,충남 아산시 삼동로 25(지번) 온천동 307-45,충청,36.7823086629726,127.010546264328
278,꺼먹돼지,restaurant,4.0,4,https://place.map.kakao.com/424626727,충남 홍성군 홍북읍 충남대로 50(지번) 홍북읍 신경리 897,충청,36.6558964184374,126.676265783316
279,캐슬1477피규어뮤지엄,cafe,3.9,55,https://place.map.kakao.com/36024343,충남 금산군 금산읍 금산로 1477(지번) 금산읍 상리 185-8,충청,36.1056959355446,127.488835310259
280,백송식당,restaurant,4.9,3,https://place.map.kakao.com/1042378395,충남 공주시 유구읍 시장길 36(지번) 유구읍 석남리 258,충청,36.5534729543419,126.951878969204
281,해피준,cafe,4.1,192,https://place.map.kakao.com/350062907,충남 태안군 소원면 파도길 63-12(지번) 소원면 파도리 687-2,충청,36.7383996375345,126.133469255024
282,매향,restaurant,4.0,545,https://place.map.kakao.com/9031230,충남 공주시 백미고을길 18 1층(지번) 금성동 178-6,충청,36.465595106201,127.121637398387
283,바다횟집펜션,restaurant,4.7,10,https://place.map.kakao.com/9772334,충남 보령시 천북면 학성염전길 94-26(지번) 천북면 학성리 255,충청,36.4507001247222,126.49071856909
284,미래수산식당,restaurant,4.2,97,https://place.map.kakao.com/16130790,충남 서산시 대산읍 삼길포1로 47(지번) 대산읍 화곡리 3,충청,37.0019390327065,126.45222462975
285,고산흑염소,restaurant,3.5,1,https://place.map.kakao.com/8749231,충남 당진시 송악읍 버드레길 33(지번) 송악읍 고대리 43-40,충청,36.9737311427452,126.752649414325
286,서경,restaurant,5.0,17,https://place.map.kakao.com/1074424458,충남 논산시 가야곡면 원앙로 612(지번) 가야곡면 야촌리 173-4,충청,36.1338568091466,127.15441916875
287,마리올라 아산 신정호수,cafe,4.5,36,https://place.map.kakao.com/1222529423,"충남 아산시 신정호길 216-25 1, 2층(지번) 점양동 98-2",충청,36.7667003455203,126.97070379087
288,왕새우나라,restaurant,4.9,127,https://place.map.kakao.com/1125038126,충남 천안시 서북구 오성로 63 1층(지번) 두정동 826,충청,36.8305362108666,127.134300362822
289,대흥식당 본점,restaurant,3.5,224,https://place.map.kakao.com/475391918,충남 예산군 대흥면 노동길 14(지번) 대흥면 노동리 456-3,충청,36.6292079472484,126.814784913523
290,원조옛날감자탕,restaurant,4.3,38,https://place.map.kakao.com/9369579,충남 당진시 합덕읍 중동길 31-1(지번) 합덕읍 운산리 273-29,충청,36.807490325709,126.771984034653
291,아산축산농협 한우프라자 온궁,restaurant,4.3,18,https://place.map.kakao.com/1659796552,충남 아산시 온천대로 1721 4층(지번) 모종동 66-2,충청,36.776433647477,127.028655362717
292,원조간월도별미영양굴밥,restaurant,4.1,153,https://place.map.kakao.com/26397209,충남 서산시 부석면 간월도1길 69-1 1층(지번) 부석면 간월도리 88-2,충청,36.6094139673119,126.416429532513
293,병천부부순대,restaurant,3.9,109,https://place.map.kakao.com/10385657,충남 천안시 동남구 병천면 아우내순대길 28 1층(지번) 병천면 병천리 209-3,충청,36.7601160458585,127.298643429934
294,밀라베이커리카페,cafe,4.3,78,https://place.map.kakao.com/1779721106,충남 아산시 둔포면 운용길 31 1층(지번) 둔포면 운용리 338-1,충청,36.9347502530664,127.057740084025
295,명품한우타운,restaurant,5.0,0,https://place.map.kakao.com/2050277328,충남 공주시 무령로 580-34(지번) 월송동 496-2,충청,36.472406086216,127.15444209303
296,맥도날드 충남논산DT점,restaurant,3.8,21,https://place.map.kakao.com/74784720,충남 논산시 시민로 247 1층(지번) 내동 343-1,충청,36.1885784636421,127.095432887513
297,궁전해물칼국수,restaurant,3.7,57,https://place.map.kakao.com/24324389,충남 천안시 동남구 원성2교길 21-1(지번) 원성동 310-3,충청,36.8037155341615,127.155083738976
298,숲카페,cafe,4.0,69,https://place.map.kakao.com/1355608976,충남 공주시 반포면 동학사1로 256-26 1-2층(지번) 반포면 학봉리 733-9,충청,36.3597944503522,127.237284496363
299,소담돈까스,restaurant,4.2,42,https://place.map.kakao.com/27476678,충남 부여군 내산면 성충로미암길 8(지번) 내산면 저동리 57,충청,36.2852726263146,126.769605849964
300,대화중화요리 좌부동본점,restaurant,3.8,221,https://place.map.kakao.com/2111574415,충남 아산시 고불로 700 1층(지번) 좌부동 62-1,충청,36.7572966310209,127.030026726388
301,자연산미꾸라지,restaurant,3.5,4,https://place.map.kakao.com/14489859,충남 당진시 정미면 염솔로 418-1(지번) 정미면 봉성리 517-19,충청,36.8360501134671,126.539208181413
302,알롱지,cafe,4.2,73,https://place.map.kakao.com/1243276710,충남 천안시 동남구 풍세면 용두2길 39-1 1~2층(지번) 풍세면 용정리 52-8,충청,36.7444478456177,127.124080531202
303,오리랑닭이랑,restaurant,4.9,26,https://place.map.kakao.com/272164431,충남 공주시 사곡면 마곡사로 499(지번) 사곡면 가교리 76-6,충청,36.5358043513376,127.029937966444
304,스타벅스 아산탕정역점,cafe,4.6,51,https://place.map.kakao.com/317095424,"충남 아산시 탕정면 한들물빛도시로 88 거산타워 1층 104~107, 111호(지번) 탕정면 매곡리 1219",충청,36.7870331942758,127.083773107515
305,편백가든 쌍용점,restaurant,4.1,191,https://place.map.kakao.com/80204262,충남 천안시 서북구 서부대로 319-4 1층 101호(지번) 쌍용동 190-5,충청,36.7957152339118,127.125565644892
320,옛날손두부&국수,restaurant,4.1,149,https://place.map.kakao.com/1596126113,충남 서산시 중앙로 159 1층(지번) 석림동 562-3,충청,36.7743413808593,126.465939459854
321,보네르플라워,restaurant,4.7,398,https://place.map.kakao.com/1279744424,충남 아산시 신정로 548(지번) 방축동 534-4,충청,36.7680400816832,126.978018808364
322,고향식당,restaurant,4.5,169,https://place.map.kakao.com/80860662,충남 아산시 번영로 226 현진빌딩 지하 1층(지번) 모종동 567-1,충청,36.7838804614884,127.015617451977
323,메종드엠,cafe,4.5,12,https://place.map.kakao.com/53227155,충남 천안시 동남구 양지말1길 11-12 2층(지번) 유량동 61-5,충청,36.8158657588236,127.18696691073
324,어부횟집,restaurant,4.2,40,https://place.map.kakao.com/27185280,충남 보령시 지장골길 48 1층(지번) 죽정동 691,충청,36.3586504454244,126.60418179164
325,돼지야,restaurant,4.9,86,https://place.map.kakao.com/752087005,충남 천안시 서북구 봉정로 395(지번) 두정동 1566,충청,36.837287675845,127.145398805933
326,서천한우타운,restaurant,4.4,4,https://place.map.kakao.com/18222239,충남 서천군 서천읍 충절로41번길 11-15(지번) 서천읍 군사리 855-2,충청,36.0762571329149,126.686686746656
327,금강식당,restaurant,3.7,27,https://place.map.kakao.com/10218611,충남 서천군 화양면 옥포길8번길 5(지번) 화양면 옥포리 201,충청,36.0379610141482,126.782394518892
328,삼보어죽,restaurant,3.7,103,https://place.map.kakao.com/9803555,충남 천안시 서북구 서부8길 40 104호(지번) 성정동 688-1,충청,36.8189740858322,127.14099854532
329,스밀로우커피,cafe,5.0,12,https://place.map.kakao.com/2123715856,충남 천안시 동남구 봉서9길 25 금탑빌딩 1층(지번) 봉명동 453,충청,36.8119424751223,127.133566883537
330,온천갈비탕,restaurant,4.7,41,https://place.map.kakao.com/1901161076,충남 아산시 온양역길 124 1층(지번) 온천동 127-5,충청,36.7795031132417,127.007123154295
331,진흥반점,restaurant,3.8,11,https://place.map.kakao.com/22576076,충남 논산시 연무읍 득안대로 476-2 1층(지번) 연무읍 죽평리 361-5,충청,36.1133833321184,127.0986686655
332,명성한우회관,restaurant,5.0,208,https://place.map.kakao.com/8343708,충남 논산시 연무읍 연무로 167-1(지번) 연무읍 안심리 1-56,충청,36.1312290830935,127.097920896916
333,언더힐,cafe,4.6,297,https://place.map.kakao.com/1980783349,충남 아산시 염치읍 송곡남길 90(지번) 염치읍 송곡리 112-134,충청,36.7995695066904,127.014019870554
334,팽나무골 곤드레밥집,restaurant,4.1,10,https://place.map.kakao.com/26622938,충남 천안시 서북구 입장면 성진로 1255(지번) 입장면 도림리 46-1,충청,36.9136224127579,127.267874993379
335,노마만리,cafe,4.5,73,https://place.map.kakao.com/279607511,충남 천안시 서북구 직산읍 금곡로 166(지번) 직산읍 마정리 312-1,충청,36.8736656349065,127.100385120158
336,권구성순대국밥 불당점,restaurant,4.3,22,https://place.map.kakao.com/1410190334,충남 천안시 서북구 불당30길 2 1층(지번) 불당동 1753,충청,36.8109205970422,127.102957917035
337,육화미 천안 본점,restaurant,4.6,204,https://place.map.kakao.com/999104303,충남 천안시 서북구 불당26로 100-10 1층(지번) 불당동 1522,충청,36.8168930735222,127.107031605939
338,모락국수 천안신불당점,restaurant,4.5,40,https://place.map.kakao.com/1346923785,충남 천안시 서북구 불당25로 152 104호(지번) 불당동 1542,충청,36.8146165049827,127.107734946256
339,풍천장어직판장,restaurant,4.0,199,https://place.map.kakao.com/26307193,충남 천안시 동남구 화령길 4-1(지번) 원성동 38-37,충청,36.8106378218257,127.167731841904
340,숯불구이전문점 정가,restaurant,4.4,363,https://place.map.kakao.com/733273547,충남 당진시 대덕로 199 1층(지번) 대덕동 390,충청,36.8835456755271,126.650198399946
341,초마면,restaurant,4.0,2,https://place.map.kakao.com/1240444476,충남 천안시 동남구 청수10길 4-106 1층(지번) 삼룡동 498,충청,36.7822155911636,127.164033407799
342,아뜨란테,restaurant,4.3,87,https://place.map.kakao.com/2120508846,충남 천안시 동남구 먹거리2길 8 1층(지번) 신부동 456-1,충청,36.8178442915916,127.153920178236
343,베이커리 카페 루,cafe,4.3,108,https://place.map.kakao.com/785412429,충남 천안시 동남구 서부대로 531-20(지번) 봉명동 131-65,충청,36.815111858174,127.129080017181
344,목연식당 두정본점,restaurant,4.0,60,https://place.map.kakao.com/17319311,충남 천안시 서북구 원두정7길 2(지번) 두정동 881,충청,36.8319734040278,127.134205461384
345,나루터식당,restaurant,3.7,34,https://place.map.kakao.com/11017612,충남 부여군 부여읍 나루터로 37(지번) 부여읍 구아리 99,충청,36.2856737215913,126.909133828222
346,항아리보쌈 청수점,restaurant,4.5,21,https://place.map.kakao.com/27060416,충남 천안시 동남구 청수15길 12(지번) 청수동 288,충청,36.7873083403828,127.152017587158
347,동학사 기찬메밀국수,restaurant,3.8,61,https://place.map.kakao.com/1753796575,"충남 공주시 반포면 동학사1로 80 1,2층(지번) 반포면 학봉리 460-6",충청,36.365770899214745,127.25642042869369
348,산들원,restaurant,4.3,166,https://place.map.kakao.com/18852820,충남 아산시 도고면 도고산로 457(지번) 도고면 신유리 178-3,충청,36.7391565884789,126.912077630521
349,대동집 천안성정점,restaurant,5.0,16,https://place.map.kakao.com/1671885376,충남 천안시 서북구 성정두정로 38 1층(지번) 성정동 1336,충청,36.8290312033457,127.141582401393
350,화룡,restaurant,3.8,78,https://place.map.kakao.com/2045414697,충남 당진시 수청2길 23 1-2층(지번) 수청동 1370,충청,36.77711726469598,126.45374089957224
351,포시즌키친 보령시청점,restaurant,5.0,113,https://place.map.kakao.com/538312369,충남 보령시 명천로3길 24(지번) 명천동 1213,충청,36.3353772271933,126.608968372587
352,태균네횟집,restaurant,3.7,27,https://place.map.kakao.com/554037683,충남 당진시 석문면 석문방조제로 1798-8(지번) 석문면 장고항리 87-1,충청,37.0238226776209,126.573579320912
353,조선한양회관,restaurant,4.2,7,https://place.map.kakao.com/617021271,충남 보령시 신설2길 51(지번) 동대동 1146,충청,36.3508885126181,126.60515253735
354,은정갈비,restaurant,3.9,16,https://place.map.kakao.com/10666592,충남 아산시 온궁로 5(지번) 온천동 220-9,충청,36.7827061560743,127.00118042682
355,먹골갈비,restaurant,4.6,54,https://place.map.kakao.com/10348771,충남 아산시 영인면 영인로 54 1층(지번) 영인면 아산리 149-5,충청,36.8549565609481,126.956184012024
356,해장박사,restaurant,4.8,40,https://place.map.kakao.com/26313705,충남 천안시 서북구 원두정4길 28 1층(지번) 두정동 837,충청,36.8306599446654,127.136975765192
357,경복궁&갓포제주,restaurant,4.1,387,https://place.map.kakao.com/1879318875,충남 아산시 배방읍 희망로46번길 8 2층 210~221호(지번) 배방읍 장재리 1721,충청,36.788029030082,127.103760146307
358,백제향,cafe,4.7,50,https://place.map.kakao.com/26430414,충남 부여군 부여읍 사비로30번길 17 1층(지번) 부여읍 동남리 653-1,충청,36.2753725964247,126.912436168513
359,초원식당,restaurant,4.1,10,https://place.map.kakao.com/16130568,충남 당진시 합덕읍 덕평로 535(지번) 합덕읍 운산리 257-88,충청,36.8067936226719,126.776656158617
360,장수고을 논산점,restaurant,4.3,37,https://place.map.kakao.com/24855778,충남 논산시 강산길 86 1층(지번) 강산동 436-11,충청,36.1904971091409,127.078873014018
361,고가네칼국수,restaurant,3.8,186,https://place.map.kakao.com/10163672,충남 공주시 제민천3길 56(지번) 중동 187-5,충청,36.4534780618844,127.123476365099
362,천안당호두과자 천안역본점,cafe,4.8,8,https://place.map.kakao.com/9983690,충남 천안시 동남구 대흥로 229 1층(지번) 대흥동 299-3,충청,36.8086688672131,127.147563999711
363,화담원 신정호점,restaurant,4.2,101,https://place.map.kakao.com/1441250513,충남 아산시 신정호길 33-29 3층(지번) 방축동 727,충청,36.7749930678141,126.98212230769
364,태안맛집 바다꽃게장,restaurant,4.0,64,https://place.map.kakao.com/10406311,충남 태안군 태안읍 능샘1길 45 1층(지번) 태안읍 남문리 575-18,충청,36.7546321378832,126.293958764699
365,던킨 천안백석점,cafe,5.0,7,https://place.map.kakao.com/1359418175,충남 천안시 서북구 한들3로 78-3 1동 1층 102호(지번) 백석동 946,충청,36.8307596201805,127.123903776567
366,청기와지붕아래 대전IC직영점,restaurant,4.4,16,https://place.map.kakao.com/2047568663,충남 보령시 대해로 438 1층(지번) 요암동 139-1,충청,36.327717493645,126.558291024257
367,청학동,restaurant,4.5,62,https://place.map.kakao.com/47438653,충남 태안군 태안읍 군청9길 6 1-2층(지번) 태안읍 남문리 713-8,충청,36.74568776362243,126.30286097484192
368,마초쉐프 천안점,restaurant,4.0,3290,https://place.map.kakao.com/78530536,충남 천안시 동남구 먹거리11길 31 2층(지번) 신부동 461-14,충청,36.8183920008433,127.155914482747
369,마장동막창,restaurant,4.8,33,https://place.map.kakao.com/16801371,충남 천안시 서북구 미라7길 18(지번) 쌍용동 1142,충청,36.8024666908821,127.129797013941
370,원조옥수사,restaurant,4.3,20,https://place.map.kakao.com/8475111,충남 천안시 동남구 영성로 25-3(지번) 사직동 181-3,충청,36.8005818500355,127.150222734854
371,황소곱창,restaurant,4.6,1675,https://place.map.kakao.com/1333058959,충남 천안시 서북구 불당1길 40 1층(지번) 불당동 1007,충청,36.8041952082665,127.106879350124
372,인주 한옥점,cafe,4.1,980,https://place.map.kakao.com/1472683281,충남 아산시 인주면 아산만로 1608(지번) 인주면 문방리 120-2,충청,36.8674443338646,126.874823992536
373,싸릿골,restaurant,4.2,55,https://place.map.kakao.com/21604382,충남 아산시 음봉면 음봉로447번길 24(지번) 음봉면 동암리 193-4,충청,36.8441392391555,127.060290362482
374,단비,restaurant,4.5,49,https://place.map.kakao.com/8277692,충남 천안시 동남구 태조산길 120-3(지번) 유량동 281,충청,36.8138876466705,127.177558018145
375,매드포갈릭 신세계백화점천안아산점,restaurant,4.4,31,https://place.map.kakao.com/1302439445,충남 천안시 동남구 만남로 43 A관 5층(지번) 신부동 356-3,충청,36.8193302097389,127.15784651678
389,고반식당 내포신도시점,restaurant,4.0,125,https://place.map.kakao.com/1018574880,"충남 홍성군 홍북읍 의향로 263 세종의료빌딩 1층 109,110호(지번) 홍북읍 신경리 585",충청,36.6577519894704,126.681398858914
390,한우마을,restaurant,4.2,71,https://place.map.kakao.com/21250167,충남 서천군 판교면 종판로901번길 12(지번) 판교면 현암리 144-34,충청,36.1550767955693,126.690919016454
391,은행집,restaurant,4.0,113,https://place.map.kakao.com/9347665,충남 청양군 대치면 한티고개길 11(지번) 대치면 대치리 74-1,충청,36.4357109906653,126.881643170579
392,장벌집,restaurant,4.4,49,https://place.map.kakao.com/20261605,충남 보령시 해안로 321 1층(지번) 내항동 875-2,충청,36.3492100132403,126.557474839946
393,주봉마을우렁촌,restaurant,4.3,44,https://place.map.kakao.com/8070078,충남 공주시 이인면 검바위로 712 1층(지번) 이인면 주봉리 372-1,충청,36.3999970930142,127.087118746685
394,소박한밥상,restaurant,4.5,108,https://place.map.kakao.com/16135634,충남 서산시 인지면 애정길 150-22(지번) 인지면 애정리 483,충청,36.7356227153755,126.412630946892
395,호호아줌마,restaurant,3.9,142,https://place.map.kakao.com/259703447,충남 태안군 소원면 모항항길 121-7(지번) 소원면 모항리 466-1,충청,36.7763207906068,126.136214595
396,샤브올데이 아산탕정점,restaurant,4.8,178,https://place.map.kakao.com/697652629,충남 아산시 탕정면 매곡한들15길 34 2층(지번) 탕정면 매곡리 1236,충청,36.7861152209243,127.082234808308
397,물레방아,restaurant,4.6,39,https://place.map.kakao.com/9876965,충남 서산시 운산면 운암로 1207-4 1층(지번) 운산면 수당리 158-5,충청,36.8152666952496,126.59891580914
398,병천쌍둥이네순대,restaurant,4.3,206,https://place.map.kakao.com/12376046,충남 천안시 동남구 병천면 아우내순대길 26 1층(지번) 병천면 병천리 210-8,충청,36.759906326067,127.298547758599
399,홍만옥,restaurant,3.6,8,https://place.map.kakao.com/1532062645,충남 아산시 신창면 서부북로 920 1층(지번) 신창면 남성리 134-19,충청,36.7902853128035,126.961707472107
400,우야지막창 동대구역점,restaurant,4.2,821,https://place.map.kakao.com/1942730766,대구 동구 동부로30길 34 1층(지번) 신천동 334-14,대구,35.8740874340945,128.628596819184
401,현짬뽕,restaurant,3.5,745,https://place.map.kakao.com/26629013,대구 남구 대봉로 170 1층(지번) 이천동 306-27,대구,35.8538314648921,128.602881931044
402,태능집,restaurant,3.7,375,https://place.map.kakao.com/11834053,대구 중구 달성로22길 86 1층(지번) 수창동 91-7,대구,35.8743942525302,128.586732893369
403,도마29,restaurant,4.1,824,https://place.map.kakao.com/91896634,대구 중구 동성로1길 46-2(지번) 봉산동 35-62,대구,35.8658096991761,128.595690190397
404,정원한우갈비 본점,restaurant,3.9,61,https://place.map.kakao.com/22360705,대구 수성구 범어천로 151-28(지번) 수성동4가 985-68,대구,35.8604901781052,128.621634677262
405,이가네더덕밥 대구팔공산점,restaurant,3.6,469,https://place.map.kakao.com/15711350,대구 북구 이곡길 35-41(지번) 서변동 185-1,대구,35.9388456368869,128.603996181272
406,제니스뷔페 달서점,restaurant,4.3,149,https://place.map.kakao.com/24449538,대구 달서구 와룡로 143 우방드림시티상가 3층(지번) 감삼동 521,대구,35.8455063966754,128.536364913571
407,오퐁드부아,cafe,3.6,564,https://place.map.kakao.com/1853358782,대구 달성군 가창면 주리2길 104(지번) 가창면 주리 520,대구,35.7525288676806,128.618041197233
408,모얼동,restaurant,4.2,475,https://place.map.kakao.com/1025132986,대구 중구 교동4길 44 1층(지번) 완전동 5-33,대구,35.872147494006,128.599039829919
409,슬로우터틀 동성로점,cafe,4.1,465,https://place.map.kakao.com/479341273,대구 중구 동성로2길 18-14 1층 카페 슬로우터틀(지번) 봉산동 23-1,대구,35.8664153152757,128.597029075084
410,주토피아,restaurant,3.8,228,https://place.map.kakao.com/1431812041,대구 중구 동덕로30길 141 1층(지번) 동인동4가 535-3,대구,35.8658929023221,128.611515870775
411,아트리움,restaurant,4.5,256,https://place.map.kakao.com/9234910,대구 수성구 국채보상로186길 151(지번) 범어동 143-19,대구,35.8615348865755,128.633941785185
412,울릉도 본점,restaurant,3.5,76,https://place.map.kakao.com/19335003,대구 수성구 청수로 96 1층(지번) 두산동 9,대구,35.8398054437285,128.618641678528
413,신라식당,restaurant,3.8,1072,https://place.map.kakao.com/15380037,대구 중구 중앙대로 406-10 1층(지번) 남일동 90,대구,35.8693118133863,128.594319372283
414,나지무,restaurant,4.4,301,https://place.map.kakao.com/27459601,대구 중구 대봉로 194-5 1층(지번) 대봉동 179-16,대구,35.8560747095017,128.602555715014
415,조조칼국수 범어본점,restaurant,3.9,158,https://place.map.kakao.com/1305530650,대구 수성구 국채보상로 912 1층(지번) 범어동 128-25,대구,35.8663373611265,128.630431063299
416,지환이네왕족발 본점,restaurant,4.4,537,https://place.map.kakao.com/16759663,대구 남구 대명복개로 96 1층(지번) 대명동 1595-3,대구,35.8407254666745,128.564157001421
417,스타벅스 대구종로고택점,cafe,4.4,1260,https://place.map.kakao.com/946950605,대구 중구 중앙대로77길 22(지번) 종로2가 58,대구,35.8684260031444,128.592457158377
418,앞산주택,restaurant,3.7,470,https://place.map.kakao.com/782774410,대구 남구 현충로1길 16 1-2층(지번) 대명동 526-32,대구,35.8336388598912,128.577669737517
419,옛맛집,restaurant,4.3,162,https://place.map.kakao.com/9312602,대구 달서구 구마로14길 111(지번) 본동 927-2,대구,35.8328195987428,128.536982983413
420,종로옹심이메밀칼국수&막국수,restaurant,4.6,8,https://place.map.kakao.com/923346116,대구 중구 진골목길 2 1층(지번) 종로2가 91-4,대구,35.8675829371186,128.592188751285
421,바르미스시뷔페 두산점,restaurant,3.5,124,https://place.map.kakao.com/21337085,대구 수성구 무학로 78 1층(지번) 두산동 523-1,대구,35.8291363966716,128.61742636708
422,신송자신마산식당 본점,restaurant,3.8,380,https://place.map.kakao.com/16267168,대구 남구 현충로 214 1층(지번) 대명동 1922-7,대구,35.8515113520128,128.582315088832
434,숯불촌석기시대 본점,restaurant,4.8,388,https://place.map.kakao.com/16789299,대구 남구 두류공원로 25 1층(지번) 대명동 1642-41,대구,35.8404895869015,128.574144882187
435,인더매스 삼덕점,cafe,4.7,622,https://place.map.kakao.com/2010193979,대구 중구 공평로8길 29(지번) 삼덕동2가 28-1,대구,35.866797492029,128.60164437836
436,부산해물철판구이,restaurant,4.2,55,https://place.map.kakao.com/10464629,대구 중구 동성로 4-6(지번) 동성로3가 91-11,대구,35.8671883748982,128.594324987062
437,아리츠,cafe,4.2,450,https://place.map.kakao.com/227030809,대구 중구 남성로 47 2층(지번) 남성로 89-4,대구,35.8673928164785,128.591833661868
438,기똥차게,restaurant,4.8,84,https://place.map.kakao.com/1765023214,대구 수성구 수성로76길 32 1층(지번) 수성동2가 122-1,대구,35.8571836701314,128.615739608696
439,우즈베이커리,cafe,3.7,59,https://place.map.kakao.com/27357841,대구 동구 송라로10길 2(지번) 신천동 182-1,대구,35.8720465655377,128.619337873419
440,조조칼국수 앞산본점,restaurant,3.8,116,https://place.map.kakao.com/167701452,대구 남구 현충로15길 13-1 1층(지번) 대명동 682-3,대구,35.8385283244912,128.579137335963
441,수봉반점,restaurant,4.3,772,https://place.map.kakao.com/9870379,대구 북구 대현남로2길 60 1층(지번) 대현동 321-70,대구,35.8782547470076,128.606403945976
442,련,restaurant,4.1,11,https://place.map.kakao.com/7859018,대구 북구 동천로 128-15 2층(지번) 동천동 898-4,대구,35.9428653590234,128.562429252096
443,금강장어회해산물천국,restaurant,3.7,54,https://place.map.kakao.com/14510856,"대구 중구 공평로10길 50 1,2층(지번) 삼덕동2가 29-3",대구,35.8674835942298,128.6026260211705
444,뜨삽 수성점,restaurant,4.0,64,https://place.map.kakao.com/24422379,대구 수성구 용학로 106-7(지번) 두산동 888-2,대구,35.8240968422458,128.618409237623
445,신미조리해물찜,restaurant,4.2,436,https://place.map.kakao.com/14861820,대구 동구 동호로9길 70 1층(지번) 신서동 551-2,대구,35.8698611607212,128.732326606207
446,샤브20 대구동구점,restaurant,4.5,1572,https://place.map.kakao.com/1280316903,대구 동구 안심로 274-1 2층(지번) 동호동 353-1,대구,35.8654021247225,128.714939957308
447,내안에,restaurant,3.7,576,https://place.map.kakao.com/8227919,대구 수성구 무학로 85(지번) 두산동 175-3,대구,35.8301606732476,128.617919116251
448,남문콩국,restaurant,4.9,25,https://place.map.kakao.com/25841426,대구 중구 명륜로 60-1 1층(지번) 남산동 611-32,대구,35.8615630346513,128.591120261781
449,후쿠오카호르몬 본점,restaurant,3.6,103,https://place.map.kakao.com/473314273,대구 중구 동성로1길 47 1층(지번) 봉산동 33-1,대구,35.8660150576311,128.596104816436
450,방어진 참가자미 수성못점,restaurant,3.8,51,https://place.map.kakao.com/832608348,대구 수성구 수성못2길 35 1층(지번) 두산동 706-1,대구,35.8260804530775,128.623999200888
451,만복이쭈꾸미낙지볶음 동대구점,restaurant,4.5,256,https://place.map.kakao.com/761878188,대구 동구 동대구로 448 1층(지번) 신천동 295-4,대구,35.8703039125401,128.626369302259
452,리안,restaurant,4.0,1257,https://place.map.kakao.com/7863898,대구 수성구 교학로4길 48 1층(지번) 만촌동 855-18,대구,35.8553449438828,128.650376423091
453,인투,restaurant,3.8,40,https://place.map.kakao.com/1780175386,대구 중구 동성로4길 95 1층(지번) 공평동 67-2,대구,35.8690735172505,128.599459433855
454,신천궁전떡볶이,restaurant,4.3,483,https://place.map.kakao.com/12435003,대구 수성구 국채보상로162길 72 1층(지번) 범어동 1003-18,대구,35.8645246528925,128.619385295692
455,상주식당,restaurant,4.4,69,https://place.map.kakao.com/7931096,대구 중구 국채보상로 598-1 1층(지번) 동성로2가 54-1,대구,35.8704193157228,128.596015795253
456,엄마는아구찜,restaurant,4.2,53,https://place.map.kakao.com/712072624,대구 북구 동천로23길 50 1층(지번) 동천동 969-6,대구,35.9432935528133,128.555376297667
457,맨션드방콕,restaurant,4.0,454,https://place.map.kakao.com/517608900,대구 중구 남성로 60 1층(지번) 동성로3가 53-4,대구,35.8677827381148,128.590350954774
458,장육식당 본점,restaurant,4.3,196,https://place.map.kakao.com/1955217136,대구 달서구 와룡로 104 1층(지번) 본리동 64-4,대구,35.8419174297485,128.537564699309
459,본가안동국시 율하점,restaurant,4.1,107,https://place.map.kakao.com/27581765,대구 동구 율하동로10길 23 1층(지번) 율하동 1499,대구,35.8640435083489,128.702282663627
460,석봉포차 상인점,restaurant,5.0,47,https://place.map.kakao.com/21314946,대구 달서구 월곡로 138 1층(지번) 상인동 1574,대구,35.8093475273479,128.547858532127
461,야요이,restaurant,4.5,942,https://place.map.kakao.com/1638194610,대구 수성구 들안로 376-7 1층(지번) 수성동4가 1012-8,대구,35.8636418650791,128.618752476678
462,푸른회식당,restaurant,4.2,697,https://place.map.kakao.com/21315532,대구 서구 달구벌대로375길 14-1(지번) 내당동 884-11,대구,35.8622764491664,128.570139533118
463,냉면장수 본점,restaurant,4.1,297,https://place.map.kakao.com/1751141244,대구 동구 동대구로 460 1층(지번) 신천동 294-2,대구,35.8715418017201,128.626150034298
464,국일생갈비,restaurant,4.0,173,https://place.map.kakao.com/8823374,대구 중구 국채보상로 492 1층(지번) 동산동 106-1,대구,35.8703826177825,128.58452915274
465,환희정,restaurant,3.9,69,https://place.map.kakao.com/9609853,대구 수성구 공경로 49 1층(지번) 만촌동 447-11,대구,35.8720970893587,128.643540350617
466,온채당 대구상인점,restaurant,3.7,10,https://place.map.kakao.com/268161322,대구 달서구 월곡로 260 상인프라자 1층(지번) 상인동 1513,대구,35.8177805236658,128.539322526829
467,이로운한우,restaurant,5.0,45,https://place.map.kakao.com/15988956,"대구 달서구 대명천로 264 1,2층(지번) 장기동 566-3",대구,35.842241601817285,128.53139585714862
468,파계마루찻집,cafe,4.3,60,https://place.map.kakao.com/8561464,대구 동구 파계로 613(지번) 중대동 754,대구,35.9851545458997,128.635329365403
469,노스폴,cafe,4.7,64,https://place.map.kakao.com/1915762350,대구 중구 중앙대로 392 동성빌딩 4층(지번) 동성로3가 16-6,대구,35.8680441924809,128.593849577562
470,동인동한옥집,restaurant,4.2,121,https://place.map.kakao.com/8156340,대구 중구 동덕로 168-2 1층(지번) 동인동2가 108-9,대구,35.8697808633561,128.604773087021
471,합천숯불식당 본점,restaurant,4.9,4,https://place.map.kakao.com/16324102,대구 달서구 앞산순환로 301(지번) 송현동 2014-11,대구,35.8281700335194,128.560188259361
472,동이식당,restaurant,4.5,248,https://place.map.kakao.com/13582169,대구 달서구 한실로6길 165-7(지번) 대곡동 844-1,대구,35.7933213180868,128.529978278623
473,은혜통닭,restaurant,4.5,68,https://place.map.kakao.com/23066020,대구 북구 대동로1길 29 세원상가 1층(지번) 산격동 1259-10,대구,35.8988965283687,128.61029029577
474,태산만두 본점,restaurant,3.9,644,https://place.map.kakao.com/930928466,대구 중구 달구벌대로 2109-32 1층(지번) 덕산동 124-10,대구,35.8667068205966,128.594099676458
475,삼삼구이초밥 본점,restaurant,4.1,119,https://place.map.kakao.com/25049902,대구 중구 중앙대로 354-42 1층(지번) 남산동 921-5,대구,35.8644937943893,128.594228493041
476,사파키친,restaurant,4.1,668,https://place.map.kakao.com/52864306,대구 동구 동부로34길 10 1층(지번) 신천동 425-1,대구,35.8766509795028,128.630868634348
477,빡빡이참숯화로구이 본점,restaurant,4.4,30,https://place.map.kakao.com/13495433,대구 수성구 들안로 395 1층(지번) 범어동 1311,대구,35.8652844259945,128.61791926934
478,할매집식당,restaurant,4.3,24,https://place.map.kakao.com/15908981,대구 중구 중앙대로 454-2 1층(지번) 화전동 2-13,대구,35.8736356140218,128.594812799154
479,평생한우,restaurant,4.8,75,https://place.map.kakao.com/1052367733,대구 수성구 지범로31길 14 태화빌딩 1층(지번) 지산동 1288-1,대구,35.8226787643814,128.639716472886
480,만나식당,restaurant,3.9,73,https://place.map.kakao.com/11074278,대구 동구 효동로6길 70(지번) 효목동 1009,대구,35.8821994326186,128.650145107765
481,단골식당,restaurant,4.3,126,https://place.map.kakao.com/8835317,대구 북구 칠성시장로7길 9-1 1-2층(지번) 칠성동1가 92-6,대구,35.8759693219098,128.603716840104
482,남문납작만두,restaurant,3.7,121,https://place.map.kakao.com/25042556,대구 중구 명륜로 64-1(지번) 남산동 698-21,대구,35.861450474138,128.591542555898
483,칸다소바 대구동성로점,restaurant,4.2,679,https://place.map.kakao.com/1242598286,대구 중구 중앙대로 398-1 1층(지번) 남일동 112-1,대구,35.8687251299187,128.593948908389
484,동양중기,restaurant,5.0,106,https://place.map.kakao.com/2036115076,대구 중구 국채보상로 597-7 1층(지번) 동성로2가 40-1,대구,35.8712380720971,128.596112377278
485,쿠우쿠우 대구서구점,restaurant,4.1,667,https://place.map.kakao.com/1407079286,대구 서구 와룡로 307 디센터1976 1층(지번) 중리동 1166-1,대구,35.8597909899626,128.536649762763
486,달고떡볶이,restaurant,4.3,866,https://place.map.kakao.com/14587992,대구 달서구 야외음악당로39길 54 삼정그린빌아파트 상가 113동 1층 107호(지번) 두류동 486-2,대구,35.8541511710543,128.554339587787
487,오늘잡은소,restaurant,5.0,57,https://place.map.kakao.com/124218478,대구 북구 구리로 188 국우동행정복지센터 2층(지번) 국우동 1109-5,대구,35.9480271760317,128.575399631448
488,다락방만두,restaurant,4.7,166,https://place.map.kakao.com/14718368,대구 중구 경상감영1길 43 1층(지번) 대안동 10-4,대구,35.8729821157361,128.592706897061
489,전통미가교동생선구이비빔밥 본점,restaurant,5.0,9,https://place.map.kakao.com/20609426,대구 중구 교동길 48-1 1층(지번) 교동 68-2,대구,35.8732646686176,128.597209181671
490,남경반점,restaurant,4.4,339,https://place.map.kakao.com/10183873,대구 동구 방천로6길 39 1층(지번) 불로동 1074-18,대구,35.8965678484024,128.635137826444
491,무계획,restaurant,4.7,203,https://place.map.kakao.com/245067082,대구 중구 동성로4길 22 1층(지번) 삼덕동1가 52-4,대구,35.8657578986886,128.59869112192
492,방천소갈비,restaurant,3.7,178,https://place.map.kakao.com/25736115,대구 중구 달구벌대로450길 10(지번) 대봉동 2-11,대구,35.8614832457034,128.607468091386
493,허대구대구통닭 동대구점,restaurant,3.8,23,https://place.map.kakao.com/18788978,대구 동구 동부로30길 13 1층(지번) 신천동 381-3,대구,35.8758963702454,128.629135533456
494,코러스커피,cafe,4.8,263,https://place.map.kakao.com/1679725829,대구 중구 국채보상로 625 2층(지번) 공평동 11-3,대구,35.8704484333638,128.599178730971
495,신천황제떡뽁이 본점,restaurant,3.5,46,https://place.map.kakao.com/12745321,대구 중구 국채보상로 706(지번) 동인동4가 150,대구,35.8686327089099,128.607779019552
496,장어의힘,restaurant,3.7,275,https://place.map.kakao.com/229136130,대구 동구 팔공산로 310(지번) 송정동 770,대구,35.9888911549402,128.617812185892
497,오복반점,restaurant,3.8,232,https://place.map.kakao.com/25673014,대구 달성군 화원읍 명천로 146(지번) 화원읍 천내리 822,대구,35.8013089357357,128.50252452903
498,제니스뷔페 수성점,restaurant,4.6,97,https://place.map.kakao.com/20838440,"대구 수성구 달구벌대로 2435 두산위브제니스상가 301동 105,106호(지번) 범어동 179",대구,35.8609892465636,128.628267994973
499,마차이짬뽕 중앙로점,restaurant,4.9,52,https://place.map.kakao.com/15771180,대구 중구 중앙대로 385-1(지번) 동성로3가 35-6,대구,35.8675170092139,128.59332089107
500,바스코,restaurant,4.0,64,https://place.map.kakao.com/26886876,"대구 중구 동성로4길 100 1,2층(지번) 공평동 69-2",대구,35.86919981911318,128.59975325909204
515,아눅베이커스,cafe,4.0,190,https://place.map.kakao.com/1371713003,대구 수성구 동대구로58길 15(지번) 범어동 592-7,대구,35.8562892835419,128.62672994825
516,남경식당,restaurant,4.8,80,https://place.map.kakao.com/16497271,대구 서구 염색공단로11길 15(지번) 비산동 2008-84,대구,35.8864063842191,128.552364587979
517,여원찜갈비,restaurant,4.2,903,https://place.map.kakao.com/1922232972,대구 북구 복현로 182-27 2층(지번) 검단동 936-34,대구,35.9066450858203,128.62018610924
518,매화반점,restaurant,3.8,47,https://place.map.kakao.com/16324289,대구 남구 양지남길 141 1층(지번) 대명동 2146-19,대구,35.8515094003925,128.581039692797
519,산토리니레스토랑,restaurant,4.3,103,https://place.map.kakao.com/25933083,대구 남구 안지랑로5길 82(지번) 대명동 587-17,대구,35.8330593407152,128.565785076785
520,수운재,restaurant,4.3,117,https://place.map.kakao.com/11682530,대구 북구 옥산로9길 9-1(지번) 노원동1가 395,대구,35.886465539225,128.581210614266
521,성당동 제1능이버섯생국수 본점,restaurant,4.4,34,https://place.map.kakao.com/13582452,대구 달서구 장기로 51(지번) 성당동 486-1,대구,35.8425472210893,128.554945620256
522,에이엠다이닝키친 칠곡점,restaurant,3.9,205,https://place.map.kakao.com/1920271747,대구 북구 동천로 128-6 3층(지번) 동천동 909-1,대구,35.9426136853919,128.561278789481
523,나비다드481-1,cafe,4.7,126,https://place.map.kakao.com/1358579671,대구 수성구 만촌로3길 16 1층(지번) 만촌동 1030-10,대구,35.8603174299298,128.643863090767
524,이우철한방누룽지삼계탕,restaurant,3.7,33,https://place.map.kakao.com/1569893691,대구 달서구 용산로 82(지번) 장기동 531-1,대구,35.8445680357602,128.531140423949
525,공주당,cafe,4.4,451,https://place.map.kakao.com/2134098425,대구 중구 동성로 6-2(지번) 동성로3가 98,대구,35.867479392617,128.594383183928
526,월성참치,restaurant,4.0,78,https://place.map.kakao.com/590473204,대구 달서구 상원로 179-4 201호(지번) 월성동 1190,대구,35.8231976813349,128.526377369263
527,미남장어 수성점,restaurant,3.8,154,https://place.map.kakao.com/1105745758,대구 수성구 들안로 56(지번) 두산동 138-11,대구,35.8347022995048,128.617073012279
528,벽돌집,cafe,4.1,433,https://place.map.kakao.com/913767301,대구 중구 동덕로14길 13 1-2층(지번) 대봉동 18-1,대구,35.8611729644615,128.604712985834
529,여로식육식당,restaurant,4.2,79,https://place.map.kakao.com/12083723,대구 동구 동부로30길 31 1층(지번) 신천동 376-2,대구,35.8741969410256,128.629007395012
530,2호집돼지국밥,restaurant,4.3,1,https://place.map.kakao.com/21439031,대구 수성구 청솔로12길 40 1층(지번) 황금동 705-1,대구,35.8500445128978,128.622922268658
531,스노우피,restaurant,4.6,106,https://place.map.kakao.com/1721385718,대구 중구 중앙대로 391 에비뉴8번가 1층 116호(지번) 동성로3가 8,대구,35.8679837534297,128.593018804908
532,12키친,restaurant,4.0,135,https://place.map.kakao.com/21146991,대구 수성구 무학로11길 10 1층(지번) 상동 408-3,대구,35.8301526456995,128.61515326323
533,낙칼 본점,restaurant,4.6,306,https://place.map.kakao.com/312601266,대구 달서구 대명천로 194 1층(지번) 본리동 82-2,대구,35.8412034310858,128.538882008338
534,비둘기,cafe,4.3,100,https://place.map.kakao.com/1360587204,대구 중구 동덕로30길 110 1층(지번) 삼덕동3가 137-4,대구,35.8660408162154,128.609745757007
535,도토리원돈가스,restaurant,4.6,183,https://place.map.kakao.com/12096312,대구 북구 대학로23길 23 2층(지번) 산격동 1331-6,대구,35.8937790295624,128.609714625989
536,청라연,restaurant,4.2,126,https://place.map.kakao.com/1923122327,대구 남구 두류공원로 62 1층(지번) 대명동 1649-4,대구,35.8430121949655,128.571637872063
537,홍이네대왕조개전골 본점,restaurant,3.7,223,https://place.map.kakao.com/638802536,대구 달서구 선원로53길 34-18(지번) 용산동 489-1,대구,35.8602332664985,128.523022597135
538,짜장나라돌판공주,restaurant,4.7,367,https://place.map.kakao.com/921173289,대구 중구 동성로5길 22 2층(지번) 삼덕동1가 8-4,대구,35.8676874147031,128.595696732874
539,똥집대통령,restaurant,4.8,56,https://place.map.kakao.com/14578510,대구 동구 아양로9길 7(지번) 신암동 597-9,대구,35.8827947371737,128.618721331128
540,금마루한정식,restaurant,3.5,16,https://place.map.kakao.com/8219249,대구 동구 아양로 253(지번) 신암동 1557,대구,35.8879145905807,128.640227366001
541,미가식당,restaurant,3.5,211,https://place.map.kakao.com/14529255,대구 달서구 달구벌대로309길 18 1층(지번) 죽전동 273-1,대구,35.8506981844089,128.535225369715
542,마코토,restaurant,3.5,521,https://place.map.kakao.com/140108348,대구 중구 동성로2길 18-6 1층(지번) 봉산동 21-1,대구,35.8666222903062,128.596684714802
543,빠리바닷가재,restaurant,4.1,60,https://place.map.kakao.com/1838966975,대구 수성구 용학로 84(지번) 두산동 898-5,대구,35.8258478885129,128.618861955449
544,녹양구이 들안길본점,restaurant,3.5,194,https://place.map.kakao.com/21371994,대구 수성구 무학로17길 21(지번) 두산동 174-2,대구,35.8303278512217,128.617670319229
545,일통왕소금구이,restaurant,4.3,241,https://place.map.kakao.com/422434582,대구 수성구 달구벌대로 2341-1 1층(지번) 수성동4가 1020-23,대구,35.8599567315317,128.618545796408
546,커피맛을조금아는남자 본점,cafe,4.2,307,https://place.map.kakao.com/19713278,대구 수성구 범어천로 153(지번) 수성동4가 985-5,대구,35.8605972845882,128.622138112787
547,돌담대구,restaurant,4.4,234,https://place.map.kakao.com/274212389,대구 중구 달구벌대로 2113-13 1층(지번) 덕산동 127-16,대구,35.8660199567825,128.594772644523
548,킨슈,restaurant,4.4,511,https://place.map.kakao.com/128052435,대구 중구 이천로 230-9(지번) 봉산동 185-17,대구,35.8619920089286,128.59973435311
549,빠다롤더테라스,cafe,3.8,133,https://place.map.kakao.com/648644645,대구 달서구 조암남로14길 42 2층(지번) 월성동 1180,대구,35.8227224214191,128.525539058783
550,신짜오 본점,restaurant,3.6,123,https://place.map.kakao.com/11520626,대구 수성구 수성못6길 20-6 1-2층(지번) 두산동 716-1,대구,35.8269493636409,128.624337250655
551,쵸이,restaurant,4.1,136,https://place.map.kakao.com/1944888838,대구 중구 공평로8길 47 1층(지번) 삼덕동2가 40-11,대구,35.8665245179771,128.60262530529
552,8번가갈비살,restaurant,4.4,64,https://place.map.kakao.com/27407963,대구 수성구 들안로 71(지번) 상동 49-5,대구,35.8362207240712,128.616443814513
553,허대구대구통닭 본점,restaurant,3.9,44,https://place.map.kakao.com/8283410,대구 수성구 들안로 380(지번) 수성동4가 1012-26,대구,35.8638715245298,128.618240596238
554,큰집삼계탕,restaurant,4.1,31,https://place.map.kakao.com/16633414,대구 동구 효목로1길 21(지번) 효목동 471-7,대구,35.874124755108,128.638229512966
555,미츠팡,restaurant,4.1,122,https://place.map.kakao.com/967298961,대구 중구 동성로12길 21 1층(지번) 문화동 7-9,대구,35.8715351879169,128.596972626153
556,대구수성남선옥한우,restaurant,4.5,343,https://place.map.kakao.com/25089383,대구 수성구 들안로 88 1층(지번) 두산동 35-5,대구,35.837607320784,128.617313918883
557,호어모아,restaurant,4.7,378,https://place.map.kakao.com/127437544,대구 남구 안지랑로5길 88 1층(지번) 대명동 587-15,대구,35.8330622030092,128.565461663636
558,초이스엠,cafe,3.6,581,https://place.map.kakao.com/10085306,대구 동구 팔공산로 260(지번) 덕곡동 105-1,대구,35.9928859290926,128.613925730523
559,정대감능이백숙 성서점,restaurant,4.0,113,https://place.map.kakao.com/16611714,대구 달서구 새방로 16 지하1층(지번) 용산동 573-5,대구,35.8602384644359,128.521496005198
560,스완네,cafe,4.3,408,https://place.map.kakao.com/1621069822,대구 수성구 동대구로80길 73(지번) 범어동 131-7,대구,35.8659447053136,128.631156681226
561,로벤,restaurant,4.4,227,https://place.map.kakao.com/610628929,대구 중구 달구벌대로 2125-12 1층(지번) 봉산동 34-10,대구,35.8656778674599,128.596022107666
562,코즈,cafe,3.5,301,https://place.map.kakao.com/1076815793,대구 중구 달구벌대로 2125-8 1층(지번) 봉산동 34-11,대구,35.8655738109755,128.596060872112
563,안심농장직영식육식당,restaurant,3.5,61,https://place.map.kakao.com/10065017,대구 동구 대경로 1(지번) 숙천동 210-1,대구,35.8757176104856,128.755715789617
564,해동성,restaurant,3.6,22,https://place.map.kakao.com/16284500,대구 달서구 월배로 389(지번) 송현동 1930-24,대구,35.8296303269303,128.550135823789
565,스틸301,cafe,3.5,410,https://place.map.kakao.com/1603783452,대구 군위군 산성면 산성가음로 996(지번) 산성면 화전리 301,대구,36.1458650348294,128.711131523791
566,금이옥,restaurant,4.4,150,https://place.map.kakao.com/27375274,대구 중구 국채보상로143길 2(지번) 동인동4가 71,대구,35.8689356992153,128.608887397054
567,고바슨,cafe,4.1,8,https://place.map.kakao.com/430448136,대구 수성구 용학로 92-4 수성스퀘어 1층(지번) 두산동 863-3,대구,35.8252468099684,128.62014680557
568,정미네식당,restaurant,4.1,440,https://place.map.kakao.com/16286575,대구 달성군 가창면 헐티로2길 26 1층(지번) 가창면 정대리 774,대구,35.747462059718,128.554326165412
569,양곱화,restaurant,3.9,774,https://place.map.kakao.com/378432407,대구 수성구 들안로 80 1층(지번) 두산동 35-1,대구,35.8370436959644,128.617136806106
570,포항회물회,restaurant,3.7,10,https://place.map.kakao.com/1453655371,대구 수성구 범어로20길 19(지번) 범어동 208-10,대구,35.8579993448124,128.636782312497
571,진흥반점,restaurant,3.6,357,https://place.map.kakao.com/11512812,대구 남구 이천로28길 43-2 1층(지번) 이천동 311-28,대구,35.854795727131,128.600500079153
572,송해와오리백숙,restaurant,3.8,104,https://place.map.kakao.com/15274223,대구 동구 율하서로 76(지번) 율하동 1310,대구,35.8631712045698,128.689704959061
573,옛날국수,restaurant,3.5,34,https://place.map.kakao.com/19512117,대구 중구 중앙대로 439-1(지번) 향촌동 74-5,대구,35.872540694129,128.59402778295
574,영화옥,restaurant,4.0,78,https://place.map.kakao.com/1555957443,대구 중구 북성로 68-1 1층(지번) 북성로2가 48,대구,35.8739172292724,128.589823316652
575,청학식당,restaurant,4.0,161,https://place.map.kakao.com/16787927,대구 남구 봉덕로1길 52-1(지번) 봉덕동 599-12,대구,35.8478071134765,128.591434976485
576,반미리코,restaurant,3.5,58,https://place.map.kakao.com/26224440,대구 북구 대학로23길 7 1층(지번) 산격동 1321-5,대구,35.8946605386626,128.611084050105
577,길섶한우 대곡점,restaurant,4.7,369,https://place.map.kakao.com/860400596,대구 달서구 명천로 43 5동 1층(지번) 대곡동 19-65,대구,35.8056639118347,128.512446782421
578,개정 수성못점,restaurant,4.9,80,https://place.map.kakao.com/510903147,대구 수성구 수성못2길 3 2층(지번) 두산동 663,대구,35.825886534886,128.62233745299
579,제일숯불막창 본점,restaurant,4.2,272,https://place.map.kakao.com/8580160,대구 수성구 동대구로29길 31(지번) 황금동 841-2,대구,35.8433074976407,128.623408089276
580,대명돼지국밥,restaurant,4.2,73,https://place.map.kakao.com/8308868,대구 북구 호국로43길 27-12 1층(지번) 서변동 1750-13,대구,35.9205552401877,128.595903669617
581,해가빛코다리&쭈꾸미,restaurant,4.3,36,https://place.map.kakao.com/2003393604,대구 북구 동암로12길 17 1층(지번) 동천동 954-7,대구,35.9434108508941,128.556851914718
582,팔선생,restaurant,3.5,148,https://place.map.kakao.com/1142504527,대구 수성구 범어천로 170-1 1층(지번) 범어동 2201,대구,35.8620206844484,128.622754954414
583,오레가노,restaurant,4.0,803,https://place.map.kakao.com/1986446778,대구 중구 동성로2길 27-1 1층(지번) 삼덕동1가 11-6,대구,35.8671994279423,128.596159238403
584,팬아시아 수성못점,restaurant,4.3,351,https://place.map.kakao.com/1105040960,대구 수성구 수성못2길 15(지번) 두산동 689,대구,35.8255392883,128.623134161014
585,서울등심 대구본점,restaurant,5.0,39,https://place.map.kakao.com/11138767,대구 서구 문화로 346-1(지번) 비산동 451-24,대구,35.8758367052678,128.570581853012
586,샤이라멘,restaurant,4.3,209,https://place.map.kakao.com/1672433575,대구 동구 동부로32길 2 1층(지번) 신천동 387-3,대구,35.8768524882269,128.630668481126
587,라마앤바바나,restaurant,3.8,226,https://place.map.kakao.com/11520622,대구 중구 동성로3길 3 2층(지번) 봉산동 25-11,대구,35.8655151518231,128.597124818454
588,인비노,restaurant,4.9,19,https://place.map.kakao.com/8048805,대구 수성구 범안로1길 26 1층(지번) 지산동 1212-17,대구,35.8191326635682,128.636087465857
589,태진짬뽕,restaurant,4.6,16,https://place.map.kakao.com/1587003754,대구 동구 송라로 43 1층(지번) 신천동 739-18,대구,35.8711228919667,128.619217990801
590,한결같은식당,restaurant,4.5,351,https://place.map.kakao.com/654383478,대구 남구 봉덕남로 63 1층(지번) 봉덕동 718-13,대구,35.8424511653779,128.593282937362
591,고향손국수,restaurant,4.4,82,https://place.map.kakao.com/15916993,대구 동구 팔공로26길 13 1층(지번) 불로동 586-4,대구,35.910180090428,128.64235299752
592,오세요 카페테리아,restaurant,3.5,101,https://place.map.kakao.com/743747413,대구 동구 효신로16길 3(지번) 효목동 273-15,대구,35.8785183704032,128.631096815342
593,모닥 동대구역점,restaurant,4.6,60,https://place.map.kakao.com/1710313686,대구 동구 동부로34길 6(지번) 신천동 387-4,대구,35.8769320651332,128.630661365255
594,파도집,restaurant,3.7,82,https://place.map.kakao.com/232853942,대구 북구 고성북로 35-1(지번) 고성동3가 74,대구,35.8829643471294,128.582926122663
595,삼락원냉면,restaurant,4.1,124,https://place.map.kakao.com/26558026,대구 중구 동성로6길 12-3 1층(지번) 공평동 41,대구,35.8686872136437,128.596091544034
596,닭올닭 유천점,restaurant,4.1,33,https://place.map.kakao.com/19972826,대구 달서구 월배로 11 1층(지번) 유천동 160-4,대구,35.8115880264371,128.516111941623
597,홍구원 가창점,restaurant,3.8,96,https://place.map.kakao.com/56027860,대구 달성군 가창면 가창로176길 9(지번) 가창면 냉천리 2-23,대구,35.7893558050679,128.636472306186
598,홍춘천치즈닭갈비 수성1점,restaurant,4.6,20,https://place.map.kakao.com/2058736025,대구 수성구 들안로 338(지번) 수성동4가 1021-6,대구,35.8602196396527,128.617860150735
599,대구삼계탕,restaurant,4.1,6,https://place.map.kakao.com/10256343,대구 동구 대현로 118-7 1층(지번) 대현동 274-15,대구,35.8811422275676,128.611881373341
600,모여라돈까스,restaurant,4.7,31,https://place.map.kakao.com/26525180,대구 북구 동암로 128-12 1층 102호(지번) 구암동 767-2,대구,35.9429740073001,128.564492693001
601,장군양꼬치,restaurant,4.4,188,https://place.map.kakao.com/1951304264,대구 수성구 동대구로3길 14 1층(지번) 두산동 193-1,대구,35.832032812382,128.622222563506
602,뉴욕통닭,restaurant,3.8,127,https://place.map.kakao.com/8861783,대구 중구 종로 12(지번) 동성로3가 59-1,대구,35.8668536050869,128.592368233398
603,미가매생이굴국밥생굴보쌈 본점,restaurant,5.0,4,https://place.map.kakao.com/23105938,대구 수성구 신천동로88길 69 1층(지번) 수성동4가 1186-13,대구,35.8603335673881,128.612805885183
604,윈드윈,cafe,4.5,249,https://place.map.kakao.com/1178378438,대구 중구 달구벌대로405길 42 1층(지번) 동산동 462-3,대구,35.8672741596873,128.584000055266
605,개정 본점,restaurant,3.8,116,https://place.map.kakao.com/9683491,대구 중구 동성로3길 52(지번) 삼덕동1가 21-25,대구,35.8676507861283,128.597970557638
606,비바베이커리,cafe,4.2,93,https://place.map.kakao.com/937353115,대구 중구 대봉로 215 1층(지번) 대봉동 138-1,대구,35.8579705759924,128.601403993583
607,영천생고기,restaurant,4.4,57,https://place.map.kakao.com/13637705,대구 동구 동부로28길 29 1층(지번) 신천동 337-16,대구,35.8730773775313,128.628428555373
608,디귿,restaurant,4.7,286,https://place.map.kakao.com/1740214118,대구 중구 달구벌대로 2125-11 1층(지번) 봉산동 35-34,대구,35.8657335991164,128.595835906717
609,카페 루시드,cafe,4.1,613,https://place.map.kakao.com/10348734,대구 중구 동성로4길 94 1층(지번) 공평동 70-2,대구,35.8688573757236,128.599665996934
610,명동돼지한마리,restaurant,4.4,337,https://place.map.kakao.com/8328167,대구 수성구 범어천로 48 명국빌딩 1층(지번) 범어동 726-5,대구,35.8511354229505,128.623870074031
611,레이지모닝 동대구점,cafe,4.6,163,https://place.map.kakao.com/778902613,대구 동구 동부로30길 60-1(지번) 신천동 338-2,대구,35.8716880204331,128.62862664377
612,읍내,restaurant,4.8,106,https://place.map.kakao.com/1263580119,대구 중구 진골목길 31(지번) 남일동 132,대구,35.8689463133843,128.592709368352
613,청도돼지국밥,restaurant,3.7,231,https://place.map.kakao.com/9497643,대구 남구 대봉로 65 1층(지번) 봉덕동 948-87,대구,35.8447043724716,128.603815855711
614,정족발,restaurant,4.5,33,https://place.map.kakao.com/27061888,대구 수성구 들안로67길 30-5(지번) 수성동4가 1023-10,대구,35.8611769267497,128.617277612882
615,스타벅스 수성레이크점,cafe,3.7,75,https://place.map.kakao.com/18315394,대구 수성구 수성못길 4(지번) 두산동 840-1,대구,35.8256954560441,128.621712582663
616,2호집,restaurant,4.1,3,https://place.map.kakao.com/1253572300,대구 수성구 동대구로57길 6-18(지번) 범어동 588-23,대구,35.8570804478469,128.624708536499
617,돼지만 진천점,restaurant,3.8,185,https://place.map.kakao.com/26914295,대구 달서구 진천로 48 1층 코너(지번) 진천동 504,대구,35.8131474162295,128.524786622452
618,대성기사님식당,restaurant,3.6,28,https://place.map.kakao.com/16258709,대구 달서구 장기로 37 1층(지번) 성당동 482-1,대구,35.8421062900096,128.555738972419
619,참치열전,restaurant,4.2,25,https://place.map.kakao.com/26479209,대구 동구 효목로 10 A동 1층 7호(지번) 효목동 536-2,대구,35.8742170363451,128.639497047935
620,대구서문옛날카스테라,cafe,3.9,71,https://place.map.kakao.com/1541686924,대구 중구 큰장로 120-11 1층(지번) 대신동 115-426,대구,35.8691583990454,128.579357817011
621,우복당,restaurant,4.4,44,https://place.map.kakao.com/16458571,대구 서구 북비산로 164 1층(지번) 평리동 565-2,대구,35.8785548377701,128.551062883941
622,함박별장,restaurant,4.6,97,https://place.map.kakao.com/164952566,대구 중구 봉산문화길 88 1층(지번) 봉산동 132-17,대구,35.8638290931802,128.596889054907
623,투썸플레이스 대구앞산점,cafe,3.5,38,https://place.map.kakao.com/18447061,대구 남구 현충로 24 1-2층(지번) 대명동 493-33,대구,35.834810183340736,128.57987747279452
624,본가안동갈비,restaurant,3.5,70,https://place.map.kakao.com/16545835,대구 남구 중앙대로22길 219 1층(지번) 봉덕동 1017-8,대구,35.8421353278656,128.602699315515
625,카페담,cafe,3.9,271,https://place.map.kakao.com/612497939,대구 달성군 유가읍 유가사2길 15(지번) 유가읍 양리 68,대구,35.7149071581086,128.500063346324
626,기와집보쌈 본점,restaurant,4.4,166,https://place.map.kakao.com/8211273,대구 북구 대천로7길 6-10(지번) 읍내동 976,대구,35.9381476910176,128.553330732314
627,걸리버막창,restaurant,4.2,663,https://place.map.kakao.com/15963316,대구 북구 옥산로 53 1층(지번) 노원동1가 366-1,대구,35.885531706055,128.581455376842
628,공주당,cafe,4.7,10,https://place.map.kakao.com/8746175,대구 중구 국채보상로 625 1층(지번) 공평동 11-3,대구,35.8704484333638,128.599178730971
629,전통콩국,restaurant,4.0,40,https://place.map.kakao.com/13130244,대구 서구 서대구로 299(지번) 비산동 1840-3,대구,35.8846118357002,128.556256900052
630,긴류오사카 종로직영점,restaurant,4.9,46,https://place.map.kakao.com/62659275,대구 중구 종로 58(지번) 종로1가 13-2,대구,35.8709176484372,128.591207333776
631,랑데자뷰 대구동성로점,cafe,4.1,832,https://place.map.kakao.com/1965350512,대구 중구 동성로2길 50-9 지하1층~4층(지번) 공평동 55-35,대구,35.8682201999656,128.597294471681
632,고기굽는남자 본점,restaurant,4.5,110,https://place.map.kakao.com/20438344,대구 중구 동성로3길 32-10(지번) 삼덕동1가 32-10,대구,35.8664565986455,128.598017431535
633,사람들은즐겁다 삼덕동점,restaurant,3.7,61,https://place.map.kakao.com/916220050,대구 중구 국채보상로150길 78 1층(지번) 삼덕동3가 186-2,대구,35.865019983973,128.610271558715
634,하바네로 만촌점,restaurant,4.8,169,https://place.map.kakao.com/589942836,대구 수성구 화랑로 96(지번) 만촌동 1327-14,대구,35.8723960623084,128.637393432716
635,오스테리아 심풀,restaurant,4.5,83,https://place.map.kakao.com/1543457605,대구 중구 서성로14길 70-1 1층(지번) 대안동 84-7,대구,35.8728278185293,128.59148490959
636,짱구막창,restaurant,4.9,80,https://place.map.kakao.com/1323947090,대구 달서구 성서로 440 1층(지번) 이곡동 1227-10,대구,35.8567746003427,128.507687946944
637,하바네로,restaurant,4.4,329,https://place.map.kakao.com/1535588542,대구 수성구 신천동로96길 58 1층(지번) 수성동4가 1119-2,대구,35.8642905877749,128.615995916827
638,신참아나고,restaurant,4.2,20,https://place.map.kakao.com/9191768,대구 수성구 지산로3길 133(지번) 두산동 744-18,대구,35.8252025740506,128.625370985485
639,들안길맛집금등어,restaurant,4.1,583,https://place.map.kakao.com/375006759,대구 수성구 들안로 57 2층(지번) 상동 320-6,대구,35.834878570898,128.616302265973
640,티클래스 리저브 르샤블랑,cafe,4.4,74,https://place.map.kakao.com/1305934918,대구 중구 동성로4길 105 1층(지번) 공평동 82-15,대구,35.8694447279118,128.599619569623
641,빌리웍스,cafe,3.8,168,https://place.map.kakao.com/863278658,대구 북구 고성북로10길 41(지번) 고성동3가 1-13,대구,35.8831562808684,128.588522838688
642,커스타드,cafe,4.6,217,https://place.map.kakao.com/117839068,대구 중구 동성로2길 21-9 1층(지번) 봉산동 3-9,대구,35.8669261526263,128.595803470303
643,청람,restaurant,4.9,33,https://place.map.kakao.com/390472764,대구 중구 약령길 66-1(지번) 수동 81-1,대구,35.8691636301626,128.58967862412
644,벽천숯불갈비 동성로본점,restaurant,4.2,245,https://place.map.kakao.com/1008729718,대구 중구 동성로3길 58-11 1층(지번) 공평동 62-13,대구,35.867934614009,128.59860952684
645,달구벌경양식,restaurant,4.8,74,https://place.map.kakao.com/107521091,"대구 중구 동덕로26길 10-10 1,2층(지번) 삼덕동2가 221-2",대구,35.8651234165919,128.603678922809
646,대원석쇠불고기,restaurant,4.0,154,https://place.map.kakao.com/11970447,대구 달서구 월배로38길 6-12 1층(지번) 상인동 311-1,대구,35.8170404223325,128.533145382283
647,새산호복어,restaurant,4.4,33,https://place.map.kakao.com/9817577,대구 달서구 월곡로28길 6 1층(지번) 상인동 1574-1,대구,35.8094311199737,128.54795219958
648,동성로떡볶이,restaurant,3.5,34,https://place.map.kakao.com/16978404,대구 중구 동성로 19-7(지번) 사일동 79,대구,35.8689760635502,128.594806867748
649,수달횟집,restaurant,4.0,33,https://place.map.kakao.com/162442344,대구 달서구 와룡로 166 1층(지번) 감삼동 170-6,대구,35.8475196275566,128.537720229019
650,바다이야기,restaurant,4.0,10,https://place.map.kakao.com/16429666,대구 동구 동부로30길 42-1 1층(지번) 신천동 337-22,대구,35.8731884609112,128.628603328112
651,바우만스테이크하우스,restaurant,4.4,25,https://place.map.kakao.com/320254022,대구 수성구 동대구로 397 웰스빌딩 2층(지번) 범어동 2-3,대구,35.8657772273948,128.626315644016
652,쿠우쿠우 대구북구점,restaurant,3.5,119,https://place.map.kakao.com/1237415015,대구 북구 침산로 93 스펙트럼시티 5층(지번) 칠성동2가 20-1,대구,35.8852255662606,128.58978990597
653,홍익돈까스 대구반야월점,restaurant,3.6,161,https://place.map.kakao.com/26410263,대구 동구 안심로 240 1층(지번) 서호동 129,대구,35.8657014790274,128.710763259306
654,도키메키,cafe,3.6,40,https://place.map.kakao.com/27234060,대구 남구 명덕로 134-1 1층(지번) 대명동 1889-14,대구,35.856236865959,128.584735825968
655,대림정,restaurant,4.1,11,https://place.map.kakao.com/24171592,대구 중구 달구벌대로443길 7-22 1층(지번) 삼덕동2가 292-5,대구,35.863595364774,128.603961206559
656,가창닭갈비,restaurant,3.8,261,https://place.map.kakao.com/1724377479,대구 달성군 가창면 가창로119길 13(지번) 가창면 대일리 149,대구,35.7654974452821,128.64937075522
657,또이스치킨찜닭 본점,restaurant,4.1,143,https://place.map.kakao.com/16458168,대구 남구 양지북길 100 1층(지번) 대명동 2143-10,대구,35.8518696023197,128.579154609856
658,두셰프의돈가스앤마우,restaurant,4.1,328,https://place.map.kakao.com/22710142,대구 남구 안지랑로5길 90(지번) 대명동 587-14,대구,35.8330477008424,128.565295162158
659,강원도집,restaurant,3.6,505,https://place.map.kakao.com/9682496,대구 달성군 가창면 가창로176길 18(지번) 가창면 냉천리 2-20,대구,35.7901640845695,128.635986081203
660,명동소갈비,restaurant,5.0,41,https://place.map.kakao.com/22320879,대구 서구 국채보상로 174 상가 1층(지번) 중리동 33-15,대구,35.8693030054456,128.550114496244
661,원조집북성로우동불고기,restaurant,4.2,69,https://place.map.kakao.com/2118555906,대구 중구 서성로14길 21-11 1층(지번) 서내동 35,대구,35.8728733011133,128.588375958854
662,구공회,restaurant,4.4,268,https://place.map.kakao.com/1078638635,대구 중구 대봉로 220-27 1층(지번) 대봉동 44-67,대구,35.8588293785723,128.602247747375
663,샤브20 상인점,restaurant,4.5,284,https://place.map.kakao.com/1959127982,대구 달서구 월배로 227 2층(지번) 상인동 730,대구,35.8194937104234,128.538013703412
664,스타벅스 대구서부정류장역점,cafe,4.4,20,https://place.map.kakao.com/18691202,대구 달서구 구마로 265(지번) 성당동 261-7,대구,35.8379145396082,128.55687603178
665,경도미야꼬우동 대백프라자점,restaurant,4.0,113,https://place.map.kakao.com/21555847,대구 중구 명덕로 315 1층(지번) 대봉동 195-31,대구,35.8553835787388,128.604840471952
666,이우철한방누룽지삼계탕 앞산점,restaurant,4.4,218,https://place.map.kakao.com/763618071,대구 남구 앞산순환로 423-4(지번) 대명동 554-5,대구,35.8314204374894,128.572242926678
667,뭄뭄 진천점,restaurant,4.1,168,https://place.map.kakao.com/271854993,대구 달서구 월배로15길 8 2층(지번) 진천동 595-28,대구,35.8143077381378,128.522889903797
668,승정원한우,restaurant,4.2,319,https://place.map.kakao.com/15246023,대구 수성구 들안로 73 2-3층(지번) 상동 49-13,대구,35.836333401936564,128.61644123141014
669,뜨불 스테이크,restaurant,5.0,9,https://place.map.kakao.com/421845337,대구 중구 동성로5길 6(지번) 동성로3가 106-3,대구,35.8678961224948,128.594875564166
670,카페우즈,cafe,4.2,264,https://place.map.kakao.com/1450892658,대구 군위군 부계면 한티로 2034(지번) 부계면 대율리 1253-5,대구,36.0498155374104,128.656864191483
671,커피인구,cafe,4.4,90,https://place.map.kakao.com/1300114245,대구 중구 진골목길 6 1층(지번) 종로2가 79,대구,35.8676942618481,128.592390148229
672,원주포차,restaurant,4.3,121,https://place.map.kakao.com/1597840473,대구 중구 동성로12길 75 1층(지번) 동문동 12-5,대구,35.8711402611212,128.599867338638
673,잇씸라멘,restaurant,4.3,55,https://place.map.kakao.com/720856844,대구 달서구 야외음악당로39서길 40 1층(지번) 두류동 629-8,대구,35.8532875410442,128.551834707232
674,군위이로운한우,restaurant,3.5,289,https://place.map.kakao.com/14507616,대구 군위군 효령면 간동유원지길 14(지번) 효령면 성리 715-1,대구,36.1786641594748,128.58474698926
675,도토리편백집 대구용산점,restaurant,4.0,34,https://place.map.kakao.com/1473477126,대구 달서구 장산로 55(지번) 용산동 612-1,대구,35.8536526941165,128.524179304338
676,로타리식당,restaurant,4.8,5,https://place.map.kakao.com/26059022,대구 중구 동덕로14길 11 2층(지번) 대봉동 18-8,대구,35.861209111595,128.60458397187
677,스시준,restaurant,4.4,229,https://place.map.kakao.com/20991187,대구 중구 남성로 40-1 1층(지번) 남성로 102-1,대구,35.8672848396487,128.591107454144
678,박대호제주미스돈,restaurant,4.7,20,https://place.map.kakao.com/1365645346,대구 수성구 상록로 46(지번) 범어동 26-8,대구,35.8634345830787,128.624214309849
679,완뚝순두부 매천점,restaurant,4.1,25,https://place.map.kakao.com/654097829,대구 북구 매전로4길 32 1층(지번) 매천동 750,대구,35.9062301862357,128.541899276665
680,양포수산 본점,restaurant,3.9,24,https://place.map.kakao.com/20133011,대구 수성구 들안로 143 1층(지번) 중동 138-2,대구,35.8427441057922,128.616229557984
681,면장수 수성본점,restaurant,4.3,118,https://place.map.kakao.com/1994350963,대구 수성구 무학로 105(지번) 두산동 177-9,대구,35.830318409207,128.620076734597
682,경복궁 대구점,restaurant,3.6,140,https://place.map.kakao.com/26346969,대구 수성구 용학로 134 A동 2층(지번) 두산동 793,대구,35.8234670157741,128.623327531306
683,대구신쭈꾸미,restaurant,3.5,259,https://place.map.kakao.com/11995255,대구 수성구 청수로 118(지번) 두산동 16,대구,35.8397461751799,128.620918986546
684,복어잡는사람들 칠곡점,restaurant,3.8,49,https://place.map.kakao.com/17174467,대구 북구 칠곡중앙대로 306 1층(지번) 태전동 417-2,대구,35.9228344855549,128.547270579113
685,더포 본점,restaurant,4.2,384,https://place.map.kakao.com/18923357,대구 달서구 와룡로 169 월드마크웨스트엔드 107동상가 1층 110호(지번) 감삼동 461,대구,35.8487323095597,128.536389073619
686,피에프창 신세계백화점 동대구점,restaurant,3.8,396,https://place.map.kakao.com/1592350302,대구 동구 동부로 149 8층(지번) 신천동 1506,대구,35.8779406718693,128.629190024219
687,조선양곱창 칠곡본점,restaurant,4.5,45,https://place.map.kakao.com/17973530,대구 북구 매전로 72-15 1층(지번) 태전동 1120,대구,35.9126192114831,128.547606863623
688,향촌참숯양꼬치,restaurant,4.7,114,https://place.map.kakao.com/1043476687,대구 북구 동천로24길 17-17 동삼빌딩 2층 201호(지번) 동천동 909-2,대구,35.9423223745746,128.561235159185
689,백구한식,restaurant,3.8,126,https://place.map.kakao.com/14568159,대구 동구 동촌로46길 12-3 1층(지번) 방촌동 1072-93,대구,35.8808758289058,128.663711447474
690,경산식당,restaurant,3.8,88,https://place.map.kakao.com/8755288,대구 달성군 다사읍 강정본길 77 1층(지번) 다사읍 죽곡리 765-22,대구,35.8423759798702,128.463612310946
691,카페동이 2호점,restaurant,4.6,223,https://place.map.kakao.com/27452605,대구 수성구 수성로69길 65 수성롯데캐슬더퍼스트2단지 상가1층(지번) 수성동1가 819,대구,35.8549836853854,128.610070416449
692,상황삼계탕백숙,restaurant,4.9,53,https://place.map.kakao.com/1966332348,대구 북구 칠곡중앙대로65길 21(지번) 태전동 253-3,대구,35.925211380249,128.544398403927
693,깔꾸리족발보쌈&국수,restaurant,5.0,228,https://place.map.kakao.com/254614983,대구 달서구 대명천로 240 1층(지번) 장기동 550-6,대구,35.8421807390224,128.534209859925
694,슬로우터틀 약전골목점,cafe,4.0,192,https://place.map.kakao.com/925637471,대구 중구 남성로 53 1층(지번) 동성로3가 42,대구,35.8673188212868,128.592595864102
695,불타는청춘,restaurant,4.7,134,https://place.map.kakao.com/230450146,대구 중구 서성로 91 1층(지번) 수창동 45-8,대구,35.8748949656748,128.587616471553
696,딥다이브,cafe,4.8,181,https://place.map.kakao.com/2106670539,대구 중구 달구벌대로415길 21 1층(지번) 계산동2가 169-14,대구,35.8673135100076,128.589949550388
697,적돈 다사점,restaurant,4.3,891,https://place.map.kakao.com/588043127,대구 달성군 다사읍 대실역북로1길 5-14 1층(지번) 다사읍 매곡리 1547-11,대구,35.8587809829371,128.465345347458
698,용궁횟집,restaurant,3.9,37,https://place.map.kakao.com/14163723,대구 달성군 화원읍 성천로30길 26(지번) 화원읍 천내리 116-7,대구,35.8068086859943,128.497727527853
699,맛에반하다,restaurant,3.9,37,https://place.map.kakao.com/1744786408,대구 달서구 달서대로 559 이앤씨이노비즈타워 1층 102호(지번) 신당동 1320-2,대구,35.849523785133,128.490907904463
700,바른돈카츠 동성로직영점,restaurant,4.0,45,https://place.map.kakao.com/1597532674,대구 중구 달구벌대로 2109-30 1층(지번) 덕산동 124-41,대구,35.8666254131423,128.594102252682
701,블루문,restaurant,4.5,16,https://place.map.kakao.com/8348260,대구 동구 파계로 685(지번) 중대동 844-7,대구,35.9911181177817,128.636766323747
702,서해게장집,restaurant,4.4,115,https://place.map.kakao.com/843318954,대구 수성구 달구벌대로480길 28 1층(지번) 범어동 560-3,대구,35.8586534010132,128.623674618359
703,만리장성,restaurant,4.6,119,https://place.map.kakao.com/1001724696,대구 중구 공평로 95 1층(지번) 동문동 9-59,대구,35.8725251204525,128.600754466925
704,투썸플레이스 대구혁신도시점,cafe,4.4,6,https://place.map.kakao.com/708522432,대구 동구 첨단로8길 1 1층 106~108호(지번) 신서동 1147,대구,35.8792168393249,128.730486037551
705,하츠,restaurant,5.0,7,https://place.map.kakao.com/770682926,대구 수성구 들안로73길 5 1층(지번) 수성동4가 1024-34,대구,35.863473774371,128.617570604078
706,태산옥,restaurant,3.8,387,https://place.map.kakao.com/842350792,대구 북구 칠곡중앙대로 629 1층(지번) 읍내동 304-1,대구,35.9515646141197,128.553047899774
707,쿄우다이,restaurant,4.3,104,https://place.map.kakao.com/111833075,대구 달서구 월배로46길 72 1층(지번) 상인동 583-99,대구,35.8157642406678,128.538621307152
708,큐산,restaurant,3.8,225,https://place.map.kakao.com/540393693,대구 중구 동성로2길 49-17 1층(지번) 삼덕동1가 4-3,대구,35.8681977512609,128.595810592951
709,송정초밥,restaurant,3.5,175,https://place.map.kakao.com/7956085,대구 달서구 야외음악당로 237 1-2층(지번) 두류동 146-7,대구,35.8553737667771,128.560344954002
710,나빌레라 동성로점,restaurant,4.3,154,https://place.map.kakao.com/8196549,대구 중구 동성로5길 52 지하1층(지번) 삼덕동1가 17-23,대구,35.8672842922377,128.597374328555
711,구공탄막창 2호점,restaurant,4.1,565,https://place.map.kakao.com/12483743,대구 남구 대명로 303(지번) 대명동 64-2,대구,35.8449535733194,128.588852245124
712,바르미 샤브샤브n칼국수 본점,restaurant,3.6,48,https://place.map.kakao.com/10396947,대구 수성구 들안로 82(지번) 두산동 35-2,대구,35.8371828711812,128.617301317737
713,벽천숯불갈비 동촌유원지점,restaurant,5.0,39,https://place.map.kakao.com/847813508,대구 동구 효동로6길 5-6 1층(지번) 효목동 986,대구,35.8820694028292,128.647972761007
714,만복이쭈꾸미낙지볶음 월성점,restaurant,4.0,64,https://place.map.kakao.com/1006143453,대구 달서구 월배로23길 106(지번) 월성동 1369-21,대구,35.8193376781925,128.525460121427
715,카페루디아,cafe,3.8,19,https://place.map.kakao.com/36909298,대구 북구 칠곡중앙대로71길 30-11(지번) 태전동 368-1,대구,35.9281986978071,128.545684021477
716,공심옥,restaurant,4.3,555,https://place.map.kakao.com/1407663692,대구 수성구 유니버시아드로 318 1층 1호(지번) 욱수동 390-2,대구,35.8294816721862,128.705145760727
717,수원본가갈비,restaurant,4.4,190,https://place.map.kakao.com/20026621,대구 남구 중앙대로31길 9-5(지번) 대명동 38-2,대구,35.8467542043621,128.589917955768
718,형님동태,restaurant,4.0,46,https://place.map.kakao.com/1436901081,대구 달서구 달서대로91길 14(지번) 호산동 711-4,대구,35.8399862812238,128.490027481903
719,런던브릿지 시지직영점,restaurant,4.8,29,https://place.map.kakao.com/2081150376,대구 수성구 달구벌대로650길 101 1층(지번) 욱수동 227-13,대구,35.8297529344047,128.707967660941
720,뉴살라딘,restaurant,4.1,15,https://place.map.kakao.com/26070271,대구 북구 대학로 79(지번) 산격동 1339,대구,35.8925113764702,128.608949843255
721,빵장수꽈배기 동대구역점,cafe,4.0,52,https://place.map.kakao.com/596746910,대구 동구 동대구로 550 3층(지번) 신암동 294,대구,35.8794361440597,128.628775532684
722,장가네국밥 동호점,restaurant,4.4,36,https://place.map.kakao.com/21652810,대구 동구 동호로 157(지번) 신서동 552-11,대구,35.8687718357986,128.732117449873
723,뼈대있는돼지집,restaurant,4.2,226,https://place.map.kakao.com/979388524,대구 동구 동부로30길 57 1층(지번) 신천동 368-9,대구,35.8719440375209,128.629058253718
724,곤지곤지 침산점,restaurant,4.2,13,https://place.map.kakao.com/219622469,대구 북구 침산남로37길 27 1층(지번) 침산동 139-2,대구,35.8889265420777,128.594045916234
725,메가MGC커피 대구성서공단점,cafe,5.0,4,https://place.map.kakao.com/1623640865,대구 달서구 달서대로85길 13 1층(지번) 호림동 13-9,대구,35.8370891856621,128.490139854255
726,8번식당 본점,restaurant,3.5,512,https://place.map.kakao.com/8632787,대구 중구 서성로13길 8 1층(지번) 서성로1가 59-1,대구,35.872379124875,128.586909489267
727,부산본가밀면 3공단점,restaurant,3.5,13,https://place.map.kakao.com/27541619,대구 북구 노원로 49 1층(지번) 노원동3가 234-10,대구,35.893148322524,128.567712890764
728,마이야르,restaurant,3.6,202,https://place.map.kakao.com/344223659,대구 서구 당산로 208-25(지번) 내당동 458-38,대구,35.8555199818084,128.549229069697
729,스이텐,restaurant,4.5,118,https://place.map.kakao.com/2105033323,대구 중구 동덕로30길 55-1 1층(지번) 동인동4가 248-21,대구,35.8670035602321,128.606874815609
730,도쿄시장 동성로점,restaurant,3.9,26,https://place.map.kakao.com/959199834,대구 중구 동성로4길 43 1층(지번) 삼덕동1가 27-3,대구,35.8667063124999,128.598761765744
731,구공탄막창 형님본점,restaurant,3.5,198,https://place.map.kakao.com/13133002,대구 서구 국채보상로 308 1층(지번) 평리동 1097-3,대구,35.8717092362747,128.564605898498
732,쌍쌍오리한마당,restaurant,3.8,97,https://place.map.kakao.com/7987242,대구 동구 화랑로88길 76(지번) 방촌동 1120-2,대구,35.8750988417841,128.664668040285
733,오늘도빈대떡 방천시장 본점,restaurant,4.8,289,https://place.map.kakao.com/339111795,대구 중구 달구벌대로446길 7-16 1층(지번) 대봉동 11-7,대구,35.8616963846319,128.606678658188
734,싱싱참치,restaurant,4.6,10,https://place.map.kakao.com/18656666,대구 수성구 동대구로7길 24(지번) 두산동 129-2,대구,35.8337629861117,128.621843798242
735,어물전,restaurant,3.9,47,https://place.map.kakao.com/26938988,대구 달서구 학산로 135 1층(지번) 본동 867,대구,35.834176595795,128.541039708038
736,화북식당 대구본점,restaurant,4.0,64,https://place.map.kakao.com/857202791,대구 동구 신암로 82 1층(지번) 신암동 1286-3,대구,35.8783995271946,128.609535982831
737,삐에뜨라,restaurant,4.0,137,https://place.map.kakao.com/21087961,대구 중구 약령길 45 1층(지번) 남성로 48-1,대구,35.8683943200802,128.589100061814
738,전원돈까스,restaurant,3.5,1143,https://place.map.kakao.com/10091825,대구 중구 동성로6길 2-23(지번) 삼덕동1가 4-10,대구,35.8680371085472,128.595530149392
739,일리아나레스토랑,restaurant,5.0,19,https://place.map.kakao.com/19161018,대구 수성구 범어천로 151-3 1층(지번) 수성동4가 985-41,대구,35.8602967868305,128.62179534876
740,주비 두루향기롭다,cafe,4.7,47,https://place.map.kakao.com/1125934763,대구 북구 대학로15길 17-1(지번) 산격동 1326-11,대구,35.8937174688355,128.608101564767
741,화담,restaurant,3.6,160,https://place.map.kakao.com/18766825,대구 중구 동성로3길 75 1층(지번) 공평동 16-17,대구,35.8688108665678,128.598048878424
742,조르지오피렌체,restaurant,3.5,110,https://place.map.kakao.com/1974798833,대구 북구 호암로 51 삼성창조경제단지 기숙사D동 1-2층(지번) 침산동 1757,대구,35.8836868233949,128.595975391473
743,조똘이돼지국밥,restaurant,4.5,67,https://place.map.kakao.com/1370691670,대구 동구 동부로22길 58 1층(지번) 신천동 296-11,대구,35.8714232274249,128.626694547026
744,우리밀제빵소레헴,cafe,4.7,63,https://place.map.kakao.com/2068536974,대구 달성군 다사읍 대실역북로2길 137 1층(지번) 다사읍 매곡리 1526,대구,35.8651092837388,128.466247451955
745,고향뜰,restaurant,4.2,16,https://place.map.kakao.com/8666886,대구 중구 약령길 78-2(지번) 수동 31-2,대구,35.8697735520586,128.58962205592
746,매남골식당,restaurant,3.5,80,https://place.map.kakao.com/11081425,대구 동구 매여로 190 1층(지번) 상매동 475-24,대구,35.8960497952925,128.711922852412
747,대구골목냉면,restaurant,4.1,265,https://place.map.kakao.com/1374863173,대구 수성구 수성로 348 1층(지번) 수성동2가 238-1,대구,35.8565465585752,128.614211701392
748,이유있는감자탕 황금점,restaurant,4.7,193,https://place.map.kakao.com/909413452,대구 수성구 청수로 118 1층(지번) 두산동 16,대구,35.8397461751799,128.620918986546
749,명덕빵앗간,cafe,4.7,8,https://place.map.kakao.com/1353333289,대구 동구 동대구로 501(지번) 신천동 74-2,대구,35.8751706644014,128.625066399441
750,빕스 대구수성교점,restaurant,3.8,249,https://place.map.kakao.com/21337715,대구 중구 달구벌대로 2232 1-3층(지번) 대봉동 1-1,대구,35.8618224296065,128.6073608070718
751,옛집식당,restaurant,4.3,220,https://place.map.kakao.com/15652589,대구 중구 달성공원로6길 48-5(지번) 시장북로 120-2,대구,35.8721231982407,128.581786245606
752,본가안동국시 본점,restaurant,3.7,130,https://place.map.kakao.com/11105832,대구 수성구 희망로 216(지번) 황금동 773-10,대구,35.8460346719365,128.622337284517
753,석산복어,restaurant,3.7,60,https://place.map.kakao.com/8426575,대구 동구 효동로2길 27 1층(지번) 효목동 1060,대구,35.8810507452844,128.651398088964
754,운암막국수,restaurant,4.2,59,https://place.map.kakao.com/2024382671,대구 북구 구암로54길 7(지번) 구암동 822-9,대구,35.9349717998611,128.567339451509
755,참생고기육회식당,restaurant,4.0,62,https://place.map.kakao.com/15719914,대구 북구 고성북로 35-8 1층(지번) 고성동3가 67-2,대구,35.8831807767665,128.582852806565
756,자갈치어시장,restaurant,4.4,35,https://place.map.kakao.com/20083848,대구 동구 동부로30길 33(지번) 신천동 375-3,대구,35.874072918855,128.629002641093
757,문화장,cafe,4.1,20,https://place.map.kakao.com/1876485009,대구 중구 동성로12길 51 1층(지번) 문화동 10-33,대구,35.8712461911707,128.598503564715
758,라벨라쿠치나,restaurant,3.8,111,https://place.map.kakao.com/7857943,대구 수성구 무학로 151(지번) 지산동 1063-1,대구,35.8305994571173,128.625243035837
759,대동반점,restaurant,3.8,269,https://place.map.kakao.com/26413392,대구 북구 대현남로 49(지번) 대현동 404-1,대구,35.8825449828746,128.607858465576
760,정동진,restaurant,3.6,58,https://place.map.kakao.com/7832325,대구 북구 동북로 261 2층(지번) 복현동 340-1,대구,35.894447738989,128.619553850278
761,약전닭칼국수,restaurant,4.0,22,https://place.map.kakao.com/378078193,대구 중구 약령길 34-4 동광빌딩 1층(지번) 계산동2가 139,대구,35.8676956550473,128.589093859287
762,타라,restaurant,4.4,55,https://place.map.kakao.com/17317752,대구 중구 달구벌대로 2109-25 3층(지번) 덕산동 125-12,대구,35.8664543979863,128.593856151782
763,내당동 섬,restaurant,3.9,86,https://place.map.kakao.com/19401688,대구 서구 당산로47길 24 1층(지번) 내당동 423-23,대구,35.8575059999915,128.545761698565
764,진해숯불막창,restaurant,3.8,435,https://place.map.kakao.com/21317846,대구 남구 성당로 272 1층(지번) 대명동 2284-37,대구,35.8570285732316,128.574459460052
765,주왕산삼계탕,restaurant,4.2,12,https://place.map.kakao.com/8523644,대구 달서구 상화로 34 1층(지번) 대곡동 77-10,대구,35.8083878540843,128.517651586971
766,밥을짓다 팔공산점,restaurant,3.9,816,https://place.map.kakao.com/363005341,대구 동구 팔공산로9길 6-1 1층(지번) 덕곡동 116,대구,35.9943899786937,128.61503808828
767,명륜진사갈비 대구월성점,restaurant,3.6,78,https://place.map.kakao.com/398673884,대구 달서구 조암로 105 그루조암타워 2층 201호(지번) 월암동 858-2,대구,35.8218153803934,128.519124330266
768,풍국면 상인점,restaurant,4.2,20,https://place.map.kakao.com/1955834099,대구 달서구 상화로 203 1층(지번) 상인동 1464-6,대구,35.8103089924399,128.536331388082
769,풍천민물장어 중동점,restaurant,4.8,116,https://place.map.kakao.com/1726159410,대구 수성구 들안로 225 1층(지번) 중동 15-4,대구,35.85009593822,128.61639437692
770,효자동솥뚜껑 대구태전점,restaurant,3.8,230,https://place.map.kakao.com/106191579,대구 북구 학정로 47 1층(지번) 태전동 785,대구,35.9138040687036,128.547904781563
771,굿또스시,restaurant,4.3,262,https://place.map.kakao.com/968961150,대구 중구 달구벌대로447길 37 1층(지번) 삼덕동3가 277-2,대구,35.8640835793931,128.607697187372
772,정이품,restaurant,4.8,23,https://place.map.kakao.com/17813731,대구 수성구 범어로19길 54-1 1층(지번) 범어동 200-17,대구,35.8580913894178,128.632793463062
782,대현식당,restaurant,4.4,26,https://place.map.kakao.com/16220676,대구 북구 대현로10길 54 1층(지번) 대현동 439-17,대구,35.8827747808653,128.603544674066
783,서울만두,restaurant,4.0,12,https://place.map.kakao.com/9116661,대구 중구 국채보상로140길 28(지번) 동인동2가 241,대구,35.8675670187324,128.606155834379
784,김민성아임넙띠기돈까스 삼덕점,restaurant,3.6,52,https://place.map.kakao.com/1096662667,대구 중구 공평로8길 55 1층(지번) 삼덕동2가 40-31,대구,35.8664366311149,128.603018878229
785,돈스쿠버 본점,restaurant,3.7,35,https://place.map.kakao.com/1965826357,대구 북구 고성북로 45 1층(지번) 고성동3가 48-1,대구,35.8839373381704,128.583580216226
786,성심당 대전역점,cafe,4.1,2098,https://place.map.kakao.com/21537026,대전 동구 중앙로 215 2층(지번) 정동 1-1,대전,36.3344230194263,127.432103833008
787,오씨칼국수,restaurant,4.0,1732,https://place.map.kakao.com/16302660,대전 동구 옛신탄진로 13 1층(지번) 삼성동 304-36,대전,36.3419982459788,127.425082237254
788,정식당,restaurant,4.0,146,https://place.map.kakao.com/9937270,대전 중구 중앙로130번길 37-13 1층(지번) 대흥동 216-7,대전,36.3267786018742,127.425727914251
789,불타는쪽갈비,restaurant,4.6,2305,https://place.map.kakao.com/19738455,대전 서구 둔지로 34 갤러리타워 1층 110호(지번) 둔산동 982,대전,36.3525431671608,127.376900862302
790,성심당 본점,cafe,4.6,5941,https://place.map.kakao.com/17733090,대전 중구 대종로480번길 15 1-2층(지번) 은행동 145-1,대전,36.32765802936324,127.42727719121108
791,워낭명가 유성본점,restaurant,3.6,140,https://place.map.kakao.com/2111618635,대전 유성구 계룡로105번길 10 1-2층(지번) 봉명동 550-8,대전,36.353793591287335,127.34292786062464
792,뼈구이 농민뜨끈이,restaurant,3.8,285,https://place.map.kakao.com/1405265808,대전 중구 대흥로 161 1층(지번) 대흥동 119-3,대전,36.3250377845365,127.429710738526
793,불이아 대전봉명점,restaurant,4.1,111,https://place.map.kakao.com/902809637,대전 유성구 온천북로13번길 40 채운타운 1층(지번) 봉명동 619-1,대전,36.3588005453219,127.345141482149
794,성심당 DCC점,cafe,4.4,3545,https://place.map.kakao.com/1148545656,대전 유성구 엑스포로 107 1층(지번) 도룡동 4-19,대전,36.3749837305732,127.391691688287
795,손이가어죽칼국수,restaurant,4.3,292,https://place.map.kakao.com/23346501,대전 중구 중앙로121번길 48(지번) 선화동 20,대전,36.3298330308729,127.422406092296
796,갑부본가 성남점,restaurant,3.6,105,https://place.map.kakao.com/1248290386,대전 동구 동서대로 1614 1층(지번) 성남동 506-4,대전,36.3456697913319,127.430500139056
797,메밀고개 시골막국수 직영점,restaurant,4.2,358,https://place.map.kakao.com/1703079893,대전 동구 판교3길 3 1층(지번) 판암동 498-14,대전,36.318438776327,127.45222213222
798,원조태평소국밥 둔산점,restaurant,3.8,173,https://place.map.kakao.com/2069365489,대전 서구 둔산로31번길 52 1층(지번) 둔산동 1005,대전,36.3540840687233,127.377790871141
799,만나 대흥본점,restaurant,4.4,489,https://place.map.kakao.com/8331536,대전 중구 대흥로 138 1층(지번) 대흥동 442,대전,36.32380218954,127.427420962185
800,원조태평소국밥 본관,restaurant,4.3,259,https://place.map.kakao.com/200882001,대전 유성구 온천동로65번길 50 1층(지번) 봉명동 682-2,대전,36.3574657426066,127.350214719272
801,누리손만두,restaurant,4.7,75,https://place.map.kakao.com/19489147,대전 중구 중앙로121번길 36 1층(지번) 선화동 23-2,대전,36.3292845396967,127.422721882069
802,한영식당,restaurant,3.7,349,https://place.map.kakao.com/9589060,대전 중구 계룡로874번길 6 1층(지번) 오류동 149-25,대전,36.3234159656052,127.410759541544
803,시민칼국수,restaurant,3.7,844,https://place.map.kakao.com/1784443072,대전 중구 대흥로10번길 5 1층(지번) 문화동 1-166,대전,36.321090928558,127.415633892438
804,청송한우타운,restaurant,4.3,2184,https://place.map.kakao.com/14734613,"대전 유성구 노은동로79번길 71 로얄빌딩 1,2, 4층(지번) 노은동 550-3",대전,36.3675990678348,127.319413779457
805,김화칼국수,restaurant,4.3,903,https://place.map.kakao.com/12512189,대전 동구 중앙로203번길 28 1층(지번) 중동 22-3,대전,36.3320466729336,127.431040645245
806,봉봉원중국집,restaurant,4.0,13,https://place.map.kakao.com/9044761,대전 중구 목척3길 42(지번) 은행동 114-25,대전,36.3307329296002,127.426824422162
807,우두령,restaurant,3.6,558,https://place.map.kakao.com/8025197,대전 서구 둔산중로64번길 33 태성빌딩 2층(지번) 둔산동 1472,대전,36.3526012802819,127.388664018352
808,컨사이스,cafe,4.8,389,https://place.map.kakao.com/86431965,대전 서구 둔산남로180번길 31 1층(지번) 탄방동 1247,대전,36.3475076000111,127.397503976849
809,토미야,restaurant,4.5,600,https://place.map.kakao.com/1532158905,대전 서구 청사서로 14 1층(지번) 월평동 294,대전,36.3591447687972,127.376885115414
823,만수민물장어,restaurant,3.5,140,https://place.map.kakao.com/26436321,대전 중구 보문산로 331 3층 만수민물장어(지번) 문화동 27-5,대전,36.3127180636235,127.413272032359
824,부잣집곰탕,restaurant,3.5,48,https://place.map.kakao.com/11297533,"대전 중구 대흥로 131 1,2층(지번) 대흥동 436",대전,36.32406624598954,127.42668627569168
825,숯골원냉면 본점,restaurant,3.9,529,https://place.map.kakao.com/11892114,대전 유성구 신성로84번길 18(지번) 신성동 136-3,대전,36.3901370186363,127.35024762435
826,강변산닭,restaurant,4.7,44,https://place.map.kakao.com/16271834,대전 중구 보문로260번길 8 1층(지번) 대흥동 469-2,대전,36.3257217119482,127.422550397403
827,오백돈 대전본점,restaurant,4.0,407,https://place.map.kakao.com/936014706,"대전 서구 둔산남로105번길 18 1, 2층(지번) 둔산동 1492",대전,36.3498353403341,127.38948356252
828,왕짬뽕순두부 1호점,restaurant,3.6,180,https://place.map.kakao.com/26920811,대전 대덕구 비래서로 25 1층(지번) 비래동 125-12,대전,36.354820262048,127.447630394856
829,내집,restaurant,3.9,92,https://place.map.kakao.com/8248612,대전 중구 대흥로121번길 42(지번) 대흥동 409-7,대전,36.3252773124265,127.424922689856
830,베이크오프,cafe,4.4,186,https://place.map.kakao.com/63354372,대전 서구 관저동로 37-8 1층(지번) 관저동 1384,대전,36.2955092318621,127.339963255213
831,감자바위골식당,restaurant,3.6,501,https://place.map.kakao.com/11041849,대전 중구 문창로6번길 41 1층(지번) 문창동 366-12,대전,36.3151059869492,127.438350005215
832,하레하레,cafe,4.3,527,https://place.map.kakao.com/10093756,"대전 서구 둔산로 155 크로바아파트 제상가동 1,2층(지번) 둔산동 1509",대전,36.3523934580318,127.390987924861
833,베스타뷔페,restaurant,4.0,175,https://place.map.kakao.com/18785742,대전 서구 만년로 70 10-11층(지번) 만년동 339,대전,36.36712791386946,127.3805485696797
834,도군함박,restaurant,3.7,130,https://place.map.kakao.com/1804117403,대전 서구 둔산남로9번길 51(지번) 둔산동 1195,대전,36.3502667582987,127.378709552592
835,카페희스밀,cafe,3.5,277,https://place.map.kakao.com/26420912,대전 유성구 죽동로279번길 80 1층(지번) 죽동 728-2,대전,36.3723414214936,127.340423290594
836,장수촌누룽지삼계탕,restaurant,4.7,92,https://place.map.kakao.com/236224784,대전 중구 동서대로1322번길 36 1층(지번) 용두동 112-9,대전,36.3275111113293,127.407041201048
837,개성칼국수,restaurant,4.0,301,https://place.map.kakao.com/18475069,대전 서구 괴정로 122-1 1층(지번) 괴정동 81-3,대전,36.3369009555373,127.385868783649
838,관저 엄나무삼계탕,restaurant,4.1,26,https://place.map.kakao.com/16124877,대전 서구 관저동로105번길 23 1층(지번) 관저동 1202,대전,36.3013636106797,127.339163898719
839,카페사나고,cafe,4.4,265,https://place.map.kakao.com/511435556,대전 중구 중교로 76 1층(지번) 대흥동 150-9,대전,36.3265905371112,127.427895254881
840,솔코리안레스토랑,restaurant,4.1,46,https://place.map.kakao.com/11393985,대전 동구 우암로 128 솔브릿지국제대학 1층(지번) 삼성동 151-13,대전,36.3384262376109,127.43234827127
841,성심당 케익부띠끄 본점,cafe,4.6,2294,https://place.map.kakao.com/1834095519,대전 중구 대종로 480 1층(지번) 은행동 153,대전,36.3275394492881,127.426819032449
842,쪽방집 본관,restaurant,3.8,30,https://place.map.kakao.com/1366573295,대전 중구 보문로254번길 51 1층(지번) 대흥동 247-3,대전,36.3264155204154,127.424840665159
843,남해아구찜,restaurant,4.3,37,https://place.map.kakao.com/10194065,대전 유성구 은구비서로23번길 29(지번) 지족동 910-20,대전,36.3750926923463,127.319681111213
844,손의손 대흥직영점,restaurant,4.5,226,https://place.map.kakao.com/1601767015,대전 중구 보문로260번길 26(지번) 대흥동 476-3,대전,36.3260798648099,127.423561777553
845,마이램,restaurant,4.5,16,https://place.map.kakao.com/1592158751,대전 서구 대덕대로 226 명동프라자 104호(지번) 둔산동 1362,대전,36.3527340281524,127.379863089188
846,부뚜막두부마을,restaurant,4.5,44,https://place.map.kakao.com/1345428602,대전 서구 도솔로388번길 32 2층(지번) 괴정동 423-17,대전,36.339931586021,127.389598989057
847,별난집,restaurant,4.1,494,https://place.map.kakao.com/8365404,대전 동구 중앙로193번길 8 1층(지번) 중동 60-4,대전,36.3309368563252,127.430695727015
848,꾸드뱅,cafe,3.9,649,https://place.map.kakao.com/27558110,대전 유성구 지족동로 146 계룡프라자 1-2층(지번) 지족동 1026-2,대전,36.3867621614673,127.308748376471
849,누나돈가스,restaurant,4.1,142,https://place.map.kakao.com/27529189,대전 동구 대학로50번길 22-23 1층(지번) 용운동 670,대전,36.3327368791738,127.456690713544
850,상무초밥 유성점,restaurant,3.6,387,https://place.map.kakao.com/2079493043,대전 유성구 대학로 44 1층 106~110호(지번) 봉명동 617-1,대전,36.357559700048,127.343396052745
851,팍스,cafe,4.7,50,https://place.map.kakao.com/1375616330,대전 중구 태평로14번길 21-12(지번) 유천동 325-16,대전,36.3185837305893,127.393050282772
